SALE TYPE,SOLD DATE,PROPERTY TYPE,ADDRESS,CITY,STATE OR PROVINCE,ZIP OR POSTAL CODE,PRICE,BEDS,BATHS,LOCATION,SQUARE FEET,LOT SIZE,YEAR BUILT,DAYS ON MARKET,$/SQUARE FEET,HOA/MONTH,STATUS,NEXT OPEN HOUSE START TIME,NEXT OPEN HOUSE END TIME,URL (SEE http://www.redfin.com/buy-a-home/comparative-market-analysis FOR INFO ON PRICING),SOURCE,MLS#,FAVORITE,INTERESTED,LATITUDE,LONGITUDE
MLS Listing,,Single Family Residential,146 Riverside Dr,Dedham,MA,2026,555000,5,3,Dedham,1404,4000,1969,3,395,,Active,February-21-2021 01:00 PM,February-21-2021 02:30 PM,http://www.redfin.com/MA/Dedham/146-Riverside-Dr-02026/home/8844649,MLS PIN,72787457,N,Y,42.274786,-71.1766697
MLS Listing,,Condo/Co-op,890 Adams St #1,Boston,MA,2124,595000,3,2,Boston,1569,1569,1921,3,379,250,Active,,,http://www.redfin.com/MA/Boston/890-Adams-St-02124/unit-1/home/12431005,MLS PIN,72787215,N,Y,42.2808904,-71.0584721
MLS Listing,,Condo/Co-op,4044 Washington St #2,Boston,MA,2131,550000,2,2,Roslindale,1275,1275,2006,3,431,487,Active,February-21-2021 12:00 PM,February-21-2021 02:00 PM,http://www.redfin.com/MA/Boston/4044-Washington-St-02131/unit-2/home/21718789,MLS PIN,72787202,N,Y,42.2912997,-71.1223156
MLS Listing,,Condo/Co-op,43-45 Owencroft Rd #2,Boston,MA,2124,715000,4,2,Boston,2237,,1932,10,320,260,Active,February-21-2021 11:30 AM,February-21-2021 01:00 PM,http://www.redfin.com/MA/Boston/43-Owencroft-Rd-02124/unit-2/home/145286007,MLS PIN,72784772,N,Y,42.2807616,-71.0693044
MLS Listing,,Condo/Co-op,10 Enterprise St #2,Boston,MA,2125,740000,2,2,Dorchester,1209,,2018,10,612,301,Active,February-21-2021 12:30 PM,February-21-2021 02:30 PM,http://www.redfin.com/MA/Boston/10-Enterprise-St-02125/unit-2/home/144322095,MLS PIN,72784687,N,Y,42.3231012,-71.0615233
MLS Listing,,Condo/Co-op,14 W Broadway #802,Boston,MA,2127,829900,1,1,South Boston,1055,,2017,17,787,784,Active,,,http://www.redfin.com/MA/Boston/14-W-Broadway-02127/unit-802/home/171788304,MLS PIN,72782327,N,Y,42.3430101,-71.0567235
MLS Listing,,Condo/Co-op,146 Marlborough St #1,Boston,MA,2116,468000,0,1,Back Bay,486,486,1880,18,963,190,Active,February-21-2021 12:00 PM,February-21-2021 01:30 PM,http://www.redfin.com/MA/Boston/146-Marlborough-St-02116/unit-1/home/9250275,MLS PIN,72781786,N,Y,42.3527521,-71.0781483
MLS Listing,,Condo/Co-op,1 FRANKLIN St Ph 3A,Boston,MA,2110,12000000,3,4.5,Midtown,4172,,2016,20,2876,6270,Active,,,http://www.redfin.com/MA/Boston/1-Franklin-St-02108/unit-3A/home/145254722,MLS PIN,72781115,N,Y,42.3557832,-71.059176
MLS Listing,,Condo/Co-op,2 Hawthorne Pl Unit 15R,Boston,MA,2114,609999,1,1,Boston,941,847,1967,47,648,888,Active,,,http://www.redfin.com/MA/Boston/2-Hawthorne-Pl-02114/unit-15R/home/9275127,MLS PIN,72771358,N,Y,42.3637057,-71.0662122
MLS Listing,,Condo/Co-op,12 Stoneholm St #518,Boston,MA,2115,455000,1,1,Boston,375,375,2006,72,1213,535,Active,February-21-2021 02:30 PM,February-21-2021 04:00 PM,http://www.redfin.com/MA/Boston/12-Stoneholm-St-02115/unit-518/home/12439926,MLS PIN,72766305,N,Y,42.3458257,-71.0886264
MLS Listing,,Condo/Co-op,60 Queensberry St Unit E,Boston,MA,2215,499999,1,1,Boston,494,494,1930,128,1012,286,Active,,,http://www.redfin.com/MA/Boston/60-Queensberry-St-02215/unit-E/home/9241650,MLS PIN,72744428,N,Y,42.3425009,-71.0978626
MLS Listing,,Condo/Co-op,84 Bunker Hill St #2,Boston,MA,2129,585000,2,1,Charlestown,595,,1885,137,983,200,Active,,,http://www.redfin.com/MA/Boston/84-Bunker-Hill-St-02129/unit-2/home/9310390,MLS PIN,72738687,N,Y,42.3771992,-71.0581178
Redfin Data,,Condo/Co-op,183-185A Massachusetts Ave #404,Boston,MA,2115,1175000,2,2,Boston,1187,,2002,4,990,527,Pre On-Market,,,http://www.redfin.com/MA/Boston/183-Massachusetts-Ave-02115/unit-404/home/172112195,Coming Soon,67077,N,Y,42.3458586,-71.0872359
Redfin Data,,Condo/Co-op,6 Broadlawn Dr,Chestnut Hill,MA,2467,810000,3,2.5,Chestnut Hill,1824,,1973,4,444,,Pre On-Market,,,http://www.redfin.com/MA/Chestnut-Hill/6-Broadlawn-Dr-02467/home/11487391,Coming Soon,67074,N,Y,42.3034495,-71.1654838
MLS Listing,,Condo/Co-op,11 Durham St #3,Boston,MA,2115,1550000,2,2,South End,1229,,1900,1,1261,325,Active,,,http://www.redfin.com/MA/Boston/11-Durham-St-02115/unit-3/home/9235044,MLS PIN,72788173,N,Y,42.3436996,-71.0811067
MLS Listing,,Condo/Co-op,15 Vinton St #1,Boston,MA,2127,699000,3,1.5,Boston,964,,1890,1,725,178,Active,,,http://www.redfin.com/MA/Boston/15-Vinton-St-02127/unit-1/home/11738151,MLS PIN,72788158,N,Y,42.3302499,-71.0536987
MLS Listing,,Condo/Co-op,45 W Third St #222,Boston,MA,2127,969000,2,1,South Boston,959,,2018,1,1010,509,Active,February-21-2021 12:00 PM,February-21-2021 01:30 PM,http://www.redfin.com/MA/South-Boston/45-W-3rd-St-02127/unit-222/home/109420834,MLS PIN,72788156,N,Y,42.3421319,-71.0542886
MLS Listing,,Condo/Co-op,77 Pond Ave #301,Brookline,MA,2445,799000,3,2,Brookline,1565,357192,1968,1,511,1344,Active,,,http://www.redfin.com/MA/Brookline/77-Pond-Ave-02445/unit-301/home/11487334,MLS PIN,72788114,N,Y,42.329967,-71.1150142
MLS Listing,,Condo/Co-op,33 Pond Ave #309,Brookline,MA,2445,540000,1,1,Brookline,830,357192,1968,1,651,799,Active,,,http://www.redfin.com/MA/Brookline/33-Pond-Ave-02445/unit-309/home/11486347,MLS PIN,72788111,N,Y,42.3313518,-71.1140979
MLS Listing,,Condo/Co-op,44 Washington St #1007,Brookline,MA,2445,449000,0,1,Brookline,500,357192,1968,1,898,553,Active,,,http://www.redfin.com/MA/Brookline/44-Washington-St-02445/unit-1007/home/11486025,MLS PIN,72788109,N,Y,42.3316128,-71.1147431
MLS Listing,,Multi-Family (2-4 Unit),786-788 E Sixth,Boston,MA,2127,1849000,8,3,South Boston's City Point,2979,3187,1900,2,621,,Active,,,http://www.redfin.com/MA/Boston/786-E-6th-St-02127/home/9189783,MLS PIN,72788027,N,Y,42.333462,-71.0288291
MLS Listing,,Multi-Family (2-4 Unit),10-12 High View Ave,Boston,MA,2132,1159900,6,2,West Roxbury,2837,8214,1920,2,409,,Active,February-21-2021 12:00 PM,February-21-2021 02:00 PM,http://www.redfin.com/MA/Boston/10-High-View-Ave-02132/home/9218786,MLS PIN,72787985,N,Y,42.2668976,-71.1519097
MLS Listing,,Condo/Co-op,18-22 Wayland Unit C,Boston,MA,2125,599000,3,2,Boston,1500,1306,2020,2,399,,Active,February-21-2021 01:00 PM,February-21-2021 02:30 PM,http://www.redfin.com/MA/Boston/18-Wayland-St-02125/unit-C/home/174468218,MLS PIN,72787982,N,Y,42.3134708,-71.0729397
MLS Listing,,Condo/Co-op,548 Tremont St #4,Boston,MA,2116,699000,2,1,South End,752,752,1900,2,930,296,Active,,,http://www.redfin.com/MA/Boston/548-Tremont-St-02116/unit-4/home/9313320,MLS PIN,72787968,N,Y,42.3438971,-71.0711661
MLS Listing,,Condo/Co-op,21 Wensley St #2,Boston,MA,2120,770000,3,2,Jamaica Plain,1277,,2020,2,603,275,Active,,,http://www.redfin.com/MA/Boston/21-Wensley-St-02120/unit-2/home/174467782,MLS PIN,72787939,N,Y,42.3270709,-71.101052
MLS Listing,,Townhouse,808 Washington #808,Brookline,MA,2445,1808000,4,4.5,Brookline,2179,10018,1806,2,830,400,Active,,,http://www.redfin.com/MA/Brookline/808-Washington-St-02446/unit-808/home/172646436,MLS PIN,72787906,N,Y,42.3415006,-71.1394034
MLS Listing,,Condo/Co-op,19 Royal #5,Boston,MA,2134,449000,1,1,Boston,537,,1920,2,836,,Active,February-21-2021 01:00 PM,February-21-2021 02:00 PM,http://www.redfin.com/MA/Boston/19-Royal-St-02134/unit-5/home/11833048,MLS PIN,72787884,N,Y,42.3575866,-71.129844
MLS Listing,,Condo/Co-op,50 Symphony Rd Ph 504,Boston,MA,2115,1499000,2,2,The Fenway,1076,,2021,2,1393,646,Active,February-21-2021 12:30 PM,February-21-2021 01:30 PM,http://www.redfin.com/MA/Boston/44-50-Symphony-Rd-02115/unit-504/home/146083757,MLS PIN,72787867,N,Y,42.3428726,-71.0889114
MLS Listing,,Condo/Co-op,1672-R Washington St Ph 1,Boston,MA,2118,1825000,2,2.5,South End,1579,1579,2013,2,1156,1011,Active,February-21-2021 12:30 PM,February-21-2021 01:30 PM,http://www.redfin.com/MA/Boston/1672-Washington-St-02118/unit-1/home/174467021,MLS PIN,72787862,N,Y,42.3374094,-71.075375
MLS Listing,,Condo/Co-op,42 8th St #5104,Boston,MA,2129,535000,1,1,Charlestown's Navy Yard,668,,1899,2,801,625,Active,February-21-2021 12:00 PM,February-21-2021 01:30 PM,http://www.redfin.com/MA/Boston/42-8th-St-02129/unit-5104/home/9327727,MLS PIN,72787846,N,Y,42.3749988,-71.0520878
MLS Listing,,Townhouse,48 Robey St Unit none,Boston,MA,2119,699000,3,2.5,Boston,1592,,2020,2,439,,Active,February-21-2021 11:30 AM,February-21-2021 01:00 PM,http://www.redfin.com/MA/Boston/48-Robey-St-02119/unit-none/home/174465660,MLS PIN,72787778,N,Y,42.3219982,-71.0682807
MLS Listing,,Condo/Co-op,380 Harrison Ave #1017,Boston,MA,2118,1995500,2,2,South End,1299,,2021,2,1536,1811,Active,,,http://www.redfin.com/MA/Boston/380-Harrison-Ave-02118/unit-1017/home/174465598,MLS PIN,72787770,N,Y,42.3435586,-71.0636587
MLS Listing,,Condo/Co-op,380 Harrison Ave #1108,Boston,MA,2118,2598500,3,2.5,South End,1663,,2021,2,1563,2261,Active,,,http://www.redfin.com/MA/Boston/380-Harrison-Ave-02118/unit-1108/home/174465569,MLS PIN,72787761,N,Y,42.3435586,-71.0636587
MLS Listing,,Multi-Family (2-4 Unit),1179 SARATOGA St,Boston,MA,2128,949000,5,2,East Boston's Orient Heights,2868,4500,1915,2,331,,Active,February-21-2021 12:00 PM,February-21-2021 02:00 PM,http://www.redfin.com/MA/Boston/1179-Saratoga-St-02128/home/9110312,MLS PIN,72787757,N,Y,42.3836777,-70.9989575
MLS Listing,,Multi-Family (2-4 Unit),111 G St,Boston,MA,2127,1465000,6,2,South Boston,3156,3164,1895,2,464,,Active,,,http://www.redfin.com/MA/Boston/111-G-St-02127/home/9194985,MLS PIN,72787733,N,Y,42.3320005,-71.0443678
MLS Listing,,Condo/Co-op,1 Nassau St #1607,Boston,MA,2111,939000,2,2,Midtown,1099,1099,2004,2,854,988,Active,,,http://www.redfin.com/MA/Boston/1-Nassau-St-02111/unit-1607/home/9326198,MLS PIN,72787728,N,Y,42.348524,-71.0629362
MLS Listing,,Condo/Co-op,359 Park St #4,Boston,MA,2124,410000,2,1,Dorchester's Fields Corner,775,3372,1899,3,529,135,Active,,,http://www.redfin.com/MA/Boston/359-Park-St-02124/unit-4/home/174465138,MLS PIN,72787724,N,Y,42.2964364,-71.0690674
MLS Listing,,Condo/Co-op,37 Worcester St #4,Boston,MA,2118,849000,2,1,South End,665,665,1899,3,1277,220,Active,February-21-2021 11:30 AM,February-21-2021 01:30 PM,http://www.redfin.com/MA/Boston/37-Worcester-St-02118/unit-4/home/21718610,MLS PIN,72787714,N,Y,42.3386227,-71.0766602
MLS Listing,,Condo/Co-op,119-141 Hyde Park Ave Unit 141B,Boston,MA,2130,649000,2,1,Jamaica Plain,1010,,2021,3,643,352,Active,,,http://www.redfin.com/MA/Boston/119-Hyde-Park-Ave-02130/unit-141B/home/174464719,MLS PIN,72787685,N,Y,42.2995429,-71.1140169
MLS Listing,,Townhouse,21A Business Ter Unit 21A,Boston,MA,2136,400000,3,2.5,Boston,1435,,2004,3,279,380,Active,February-21-2021 12:00 PM,February-21-2021 02:00 PM,http://www.redfin.com/MA/Boston/21-Business-Ter-02136/unit-21A/home/174464671,MLS PIN,72787675,N,Y,42.2531376,-71.1271642
MLS Listing,,Condo/Co-op,854 E Broadway #3,Boston,MA,2127,1249999,3,2,South Boston,1524,3484,1899,3,820,248,Active,,,http://www.redfin.com/MA/Boston/854-E-Broadway-02127/unit-3/home/171844790,MLS PIN,72787661,N,Y,42.3359128,-71.0302298
MLS Listing,,Condo/Co-op,854 E Broadway #2,Boston,MA,2127,1114999,3,2,South Boston,1308,3484,1899,3,852,200,Active,,,http://www.redfin.com/MA/Boston/854-E-Broadway-02127/unit-2/home/171703041,MLS PIN,72787660,N,Y,42.3359128,-71.0302298
MLS Listing,,Condo/Co-op,375 Hyde Park Ave #1,Boston,MA,2131,579900,2,1.5,Boston,1010,,1880,3,574,193,Active,,,http://www.redfin.com/MA/Roslindale/375-Hyde-Park-Ave-02131/unit-1/home/173565542,MLS PIN,72787654,N,Y,42.2877786,-71.1187872
MLS Listing,,Multi-Family (5+ Unit),556-560 Warren St,Boston,MA,2121,1799000,16,8,Roxbury,8584,4351,1920,3,210,,Active,,,http://www.redfin.com/MA/Boston/556-Warren-St-02121/home/9223920,MLS PIN,72787640,N,Y,42.3127538,-71.0831013
MLS Listing,,Single Family Residential,3 Delore Cir,Boston,MA,2131,599900,3,1.5,Boston,1378,3599,1963,3,435,,Active,,,http://www.redfin.com/MA/Roslindale/3-Delore-Cir-02131/home/9183079,MLS PIN,72787608,N,Y,42.2802634,-71.1223035
MLS Listing,,Condo/Co-op,452 Park Dr Unit 9 &12A,Boston,MA,2215,1300000,3,3,Boston,2076,,1920,3,626,1030,Active,February-21-2021 11:00 AM,February-21-2021 01:00 PM,http://www.redfin.com/MA/Boston/452-Park-Dr-02215/unit-9-12A/home/174463794,MLS PIN,72787593,N,Y,42.345468,-71.1048839
MLS Listing,,Condo/Co-op,637 E 1st #105,Boston,MA,2127,919000,2,2,South Boston,1239,,2014,3,742,343,Active,February-21-2021 11:30 AM,February-21-2021 01:00 PM,http://www.redfin.com/MA/Boston/637-E-1st-St-02127/unit-105/home/44627264,MLS PIN,72787591,N,Y,42.3379181,-71.0340093
MLS Listing,,Multi-Family (2-4 Unit),59 Joyce Kilmer Rd,Boston,MA,2132,789000,5,3,West Roxbury's Bellevue Hill,2566,7210,1900,3,307,,Active,February-21-2021 12:00 PM,February-21-2021 03:00 PM,http://www.redfin.com/MA/West-Roxbury/59-Joyce-Kilmer-Rd-02132/home/9218579,MLS PIN,72787580,N,Y,42.2707597,-71.1654373
MLS Listing,,Condo/Co-op,36 Joy Ct Unit 4R,Boston,MA,2114,675000,1,1,Beacon Hill,615,,1850,3,1098,268,Active,February-21-2021 12:00 PM,February-21-2021 01:30 PM,http://www.redfin.com/MA/Boston/36-Joy-St-02114/unit-4R/home/40028505,MLS PIN,72787557,N,Y,42.3597013,-71.0652001
MLS Listing,,Single Family Residential,1064 Truman Pkwy,Boston,MA,2136,520000,3,2,Hyde Park,1500,6153,1949,3,347,,Active,,,http://www.redfin.com/MA/Hyde-Park/1064-Truman-Hwy-02136/home/11506565,MLS PIN,72787554,N,Y,42.2408018,-71.1257502
MLS Listing,,Condo/Co-op,304 Meridian St #9,Boston,MA,2128,539000,2,2,East Boston,1253,,1988,3,430,513,Active,,,http://www.redfin.com/MA/Boston/304-Meridian-St-02128/unit-9/home/9107335,MLS PIN,72787530,N,Y,42.3772691,-71.0394034
MLS Listing,,Condo/Co-op,143 Trenton #3,Boston,MA,2128,649000,3,2,East Boston's Eagle Hill,970,,1900,3,669,250,Active,,,http://www.redfin.com/MA/Boston/143-Trenton-St-02128/unit-3/home/174463010,MLS PIN,72787510,N,Y,42.3796352,-71.0338282
MLS Listing,,Condo/Co-op,519 Columbus Ave #5,Boston,MA,2118,899000,2,1,South End,716,,1900,3,1256,225,Active,,,http://www.redfin.com/MA/Boston/519-Columbus-Ave-02118/unit-5/home/9283317,MLS PIN,72787479,N,Y,42.3421738,-71.0801808
MLS Listing,,Single Family Residential,11 Morey Rd,Boston,MA,2132,839000,3,2.5,West Roxbury,2190,6666,1930,3,383,,Active,February-21-2021 11:00 AM,February-21-2021 01:00 PM,http://www.redfin.com/MA/West-Roxbury/11-Morey-Rd-02132/home/9167855,MLS PIN,72787433,N,Y,42.2940745,-71.1402794
MLS Listing,,Condo/Co-op,566 Commonwealth #307,Boston,MA,2215,485000,1,1,Kenmore Square,845,,1968,3,574,797,Active,February-21-2021 12:00 PM,February-21-2021 01:30 PM,http://www.redfin.com/MA/Boston/566-Commonwealth-Ave-02215/unit-307/home/137905655,MLS PIN,72787408,N,Y,42.3487227,-71.0988578
MLS Listing,,Multi-Family (2-4 Unit),31 Crawford St,Boston,MA,2121,989900,9,3,Boston,5784,6962,1890,3,171,,Active,February-21-2021 12:00 PM,February-21-2021 02:00 PM,http://www.redfin.com/MA/Boston/31-Crawford-St-02121/home/9089025,MLS PIN,72787399,N,Y,42.311556,-71.085081
MLS Listing,,Condo/Co-op,183-185 Massachusetts Ave #601,Boston,MA,2115,1189000,2,2,Back Bay,1073,,2002,3,1108,657,Active,February-21-2021 12:00 PM,February-21-2021 01:00 PM,http://www.redfin.com/MA/Boston/183-Massachusetts-Ave-02115/unit-601/home/174462318,MLS PIN,72787392,N,Y,42.3458586,-71.0872359
MLS Listing,,Condo/Co-op,45 Temple St #101,Boston,MA,2114,5450000,3,3.5,Beacon Hill,2874,,2019,3,1896,3679,Active,,,http://www.redfin.com/MA/Boston/45-Temple-St-02114/unit-101/home/174462306,MLS PIN,72787389,N,Y,42.3600745,-71.0637956
MLS Listing,,Condo/Co-op,45 Temple St #309,Boston,MA,2114,6499000,3,3.5,Beacon Hill,2896,,2019,3,2244,4496,Active,,,http://www.redfin.com/MA/Boston/45-Temple-St-02114/unit-309/home/169199574,MLS PIN,72787375,N,Y,42.3600296,-71.0636082
MLS Listing,,Condo/Co-op,45 Temple St #209,Boston,MA,2114,3750000,3,3.5,Beacon Hill,2311,,2019,3,1623,2862,Active,,,http://www.redfin.com/MA/Boston/45-Temple-St-02114/unit-209/home/170245963,MLS PIN,72787360,N,Y,42.3600296,-71.0636082
MLS Listing,,Condo/Co-op,11 Burrill Pl #3,Boston,MA,2127,480000,1,1,South Boston,510,,1890,3,941,240,Active,February-21-2021 12:00 PM,February-21-2021 01:30 PM,http://www.redfin.com/MA/Boston/11-Burrill-Pl-02127/unit-3/home/9328045,MLS PIN,72787343,N,Y,42.3326069,-71.0404449
MLS Listing,,Condo/Co-op,45 Temple St #505,Boston,MA,2114,2199000,1,2,Beacon Hill,1421,,2019,3,1548,1304,Active,,,http://www.redfin.com/MA/Boston/45-Temple-St-02114/unit-505/home/174462123,MLS PIN,72787322,N,Y,42.3600745,-71.0637956
MLS Listing,,Condo/Co-op,258 Bremen St #1,Boston,MA,2128,499999,2,1,East Boston,733,,2011,3,682,245,Active,February-21-2021 11:30 AM,February-21-2021 01:00 PM,http://www.redfin.com/MA/Boston/258-Bremen-St-02128/unit-1/home/174462098,MLS PIN,72787314,N,Y,42.3749412,-71.0320002
MLS Listing,,Condo/Co-op,260 Bremen St #2,Boston,MA,2128,569999,2,1,East Boston,733,,2011,3,778,280,Active,February-21-2021 11:30 AM,February-21-2021 01:00 PM,http://www.redfin.com/MA/Boston/260-Bremen-St-02128/unit-2/home/174462097,MLS PIN,72787312,N,Y,42.3750364,-71.0319942
MLS Listing,,Condo/Co-op,256 Bremen St #3,Boston,MA,2128,609999,2,1,East Boston,792,,2011,3,770,290,Active,February-21-2021 11:30 AM,February-21-2021 01:00 PM,http://www.redfin.com/MA/Boston/256-Bremen-St-02128/unit-3/home/174462096,MLS PIN,72787311,N,Y,42.3748981,-71.0320553
MLS Listing,,Condo/Co-op,45 Temple St #308,Boston,MA,2114,2500000,2,2.5,Beacon Hill,1692,,2019,3,1478,2105,Active,,,http://www.redfin.com/MA/Boston/45-Temple-St-02114/unit-308/home/174462076,MLS PIN,72787309,N,Y,42.3600745,-71.0637956
MLS Listing,,Condo/Co-op,11.5 Claremont Park #1,Boston,MA,2118,2595000,3,3,South End,1847,1847,1899,3,1405,568,Active,February-21-2021 12:00 PM,February-21-2021 01:30 PM,http://www.redfin.com/MA/Boston/1-Claremont-Park-02118/unit-1/home/44626973,MLS PIN,72787303,N,Y,42.3419182,-71.080802
MLS Listing,,Multi-Family (5+ Unit),116 Wales St,Boston,MA,2124,1829000,15,1,Boston,5760,5610,1965,3,318,,Active,,,http://www.redfin.com/MA/Boston/116-Wales-St-02124/home/9091127,MLS PIN,72787271,N,Y,42.2937963,-71.0829952
MLS Listing,,Condo/Co-op,4 Battery Wharf #4601,Boston,MA,2109,1375000,1,2,Waterfront,1100,,2008,3,1250,1547,Active,February-21-2021 01:30 PM,February-21-2021 03:00 PM,http://www.redfin.com/MA/Boston/4-Battery-Wharf-02109/unit-4601/home/17486384,MLS PIN,72787270,N,Y,42.3670325,-71.0501714
MLS Listing,,Condo/Co-op,133 Warren Ave #3,Boston,MA,2116,1579000,2,2,South End,1490,1490,1870,3,1060,369,Active,,,http://www.redfin.com/MA/Boston/133-Warren-Ave-02116/unit-3/home/9253262,MLS PIN,72787262,N,Y,42.3444172,-71.0748446
MLS Listing,,Condo/Co-op,38 Dwight St #4,Boston,MA,2118,669000,1,1,South End,641,641,1961,3,1044,181,Active,February-21-2021 01:30 PM,February-21-2021 03:00 PM,http://www.redfin.com/MA/Boston/38-Dwight-St-02118/unit-4/home/9280648,MLS PIN,72787261,N,Y,42.3442985,-71.0692392
MLS Listing,,Condo/Co-op,65 Mount Vernon St #1,Boston,MA,2108,499999,0,1,Beacon Hill,343,,1907,3,1458,162,Active,,,http://www.redfin.com/MA/Boston/65-Mt-Vernon-St-02108/unit-1/home/11838561,MLS PIN,72787260,N,Y,42.3584064,-71.0666225
MLS Listing,,Condo/Co-op,11 Bell Ct #1,Boston,MA,2127,375000,1,1,South Boston,385,385,1890,3,974,100,Active,,,http://www.redfin.com/MA/Boston/11-Bell-Ct-02127/unit-1/home/9327715,MLS PIN,72787247,N,Y,42.335659,-71.0552366
MLS Listing,,Single Family Residential,11 Bushnell St,Boston,MA,2124,799000,5,1.5,Ashmont | Carruth,2136,5453,1885,3,374,,Active,,,http://www.redfin.com/MA/Boston/11-Bushnell-St-02124/home/9088689,MLS PIN,72787249,N,Y,42.2854611,-71.0637748
MLS Listing,,Condo/Co-op,151 Tremont St Unit UL347,Boston,MA,2111,79000,0,,Midtown,99999,,1969,3,1,146,Active,,,http://www.redfin.com/MA/Boston/151-Tremont-St-02111/unit-UL347/home/174461571,MLS PIN,72787243,N,Y,42.3544996,-71.0633802
MLS Listing,,Townhouse,9 Warren Sq #1,Boston,MA,2130,1200000,4,3,Jamaica Plain,2174,,1880,3,552,167,Active,,,http://www.redfin.com/MA/Boston/9-Warren-Sq-02130/unit-1/home/40133765,MLS PIN,72787241,N,Y,42.3133519,-71.1120196
MLS Listing,,Condo/Co-op,121 Tremont St Unit D1,Boston,MA,2135,409900,1,1,Brighton,767,767,1964,3,534,430,Active,February-21-2021 12:00 PM,February-21-2021 01:30 PM,http://www.redfin.com/MA/Boston/121-Tremont-St-02135/unit-D1/home/9041029,MLS PIN,72787237,N,Y,42.3518915,-71.1734404
MLS Listing,,Condo/Co-op,43 Salcombe St #3,Boston,MA,2125,749000,2,2.5,Dorchester,1532,1058,1910,3,489,352,Active,February-21-2021 12:00 PM,February-21-2021 01:30 PM,http://www.redfin.com/MA/Boston/43-Salcombe-St-02125/unit-3/home/58190636,MLS PIN,72787235,N,Y,42.3138687,-71.0621767
MLS Listing,,Condo/Co-op,90 Wareham St #301,Boston,MA,2118,749000,1,1.5,South End,960,960,1900,3,780,616,Active,February-21-2021 12:00 PM,February-21-2021 01:30 PM,http://www.redfin.com/MA/Boston/90-Wareham-St-02118/unit-301/home/39912842,MLS PIN,72787223,N,Y,42.3389559,-71.06636
MLS Listing,,Single Family Residential,116 Eutaw St,Boston,MA,2128,1150000,6,3,Eagle Hill,1882,2800,1900,4,611,,Active,,,http://www.redfin.com/MA/Boston/116-Eutaw-St-02128/home/9121168,MLS PIN,72787175,N,Y,42.3802757,-71.0352546
MLS Listing,,Multi-Family (2-4 Unit),72 Eutaw St,Boston,MA,2128,999900,9,4,East Boston,3630,2500,1900,4,275,,Active,,,http://www.redfin.com/MA/Boston/72-Eutaw-St-02128/home/11835463,MLS PIN,72787170,N,Y,42.3796905,-71.0367533
MLS Listing,,Single Family Residential,20 Willowwood St,Boston,MA,2124,625000,4,2,Dorchester Center,2000,8469,1989,4,313,,Active,February-21-2021 11:30 AM,February-21-2021 01:00 PM,http://www.redfin.com/MA/Boston/20-Willowwood-St-02124/home/9101082,MLS PIN,72787139,N,Y,42.2858898,-71.0861056
MLS Listing,,Single Family Residential,21 Montrose St,Boston,MA,2119,630000,5,1.5,Boston,3410,3000,1900,4,185,,Active,,,http://www.redfin.com/MA/Boston/21-Montrose-St-02119/home/9291217,MLS PIN,72787135,N,Y,42.3236066,-71.0806739
MLS Listing,,Single Family Residential,302 Allandale Rd,Brookline,MA,2467,1795000,4,2.5,Chestnut Hill,2740,8009,2012,4,655,,Active,February-21-2021 12:00 PM,February-21-2021 02:00 PM,http://www.redfin.com/MA/Chestnut-Hill/302-Allandale-Rd-02467/home/40321807,MLS PIN,72787131,N,Y,42.3027087,-71.1418276
MLS Listing,,Condo/Co-op,1 Avery St Unit 11C,Boston,MA,2111,990000,1,1.5,Boston,754,754,2000,4,1313,1041,Active,,,http://www.redfin.com/MA/Boston/1-Avery-St-02111/unit-11C/home/9312386,MLS PIN,72787100,N,Y,42.3533168,-71.0628507
MLS Listing,,Condo/Co-op,67 Sullivan St #1,Boston,MA,2129,699000,2,1,Charlestown,1028,,1890,4,680,200,Active,,,http://www.redfin.com/MA/Boston/67-Sullivan-St-02129/unit-000001/home/9060273,MLS PIN,72787097,N,Y,42.3791583,-71.0649598
MLS Listing,,Single Family Residential,4 Goodwin Ct,Boston,MA,2127,999000,3,2.5,South Boston,1788,996,1890,4,559,,Active,,,http://www.redfin.com/MA/Boston/4-Goodwin-Ct-02127/home/9196407,MLS PIN,72787098,N,Y,42.329588,-71.05385
MLS Listing,,Single Family Residential,12 Virgil Rd,Boston,MA,2132,829000,4,2.5,West Roxbury,2150,4000,1912,4,386,,Active,February-21-2021 12:00 PM,February-21-2021 02:00 PM,http://www.redfin.com/MA/West-Roxbury/12-Virgil-Rd-02132/home/9211231,MLS PIN,72787083,N,Y,42.2833724,-71.1621883
MLS Listing,,Townhouse,207 Bunker Hill St #2,Boston,MA,2129,885000,2,1.5,Charlestown,1380,,1880,4,641,255,Active,,,http://www.redfin.com/MA/Boston/207-Bunker-Hill-St-02129/unit-2/home/40352737,MLS PIN,72787077,N,Y,42.3790551,-71.0623388
MLS Listing,,Condo/Co-op,21 Wormwood St #422,Boston,MA,2210,839900,1,1,Boston,1005,,1900,4,836,280,Active,,,http://www.redfin.com/MA/Boston/21-Wormwood-St-02210/unit-422/home/9304139,MLS PIN,72787075,N,Y,42.3469839,-71.0502336
MLS Listing,,Condo/Co-op,1504 Centre St #2,Boston,MA,2131,535000,3,1,Roslindale,1166,,1955,4,459,200,Active,,,http://www.redfin.com/MA/Boston/1504-Centre-St-02131/unit-2/home/40352899,MLS PIN,72787064,N,Y,42.2912289,-71.1393977
MLS Listing,,Condo/Co-op,423 Bunker Hill St #4,Boston,MA,2129,549000,1,1,Charlestown,649,,1860,4,846,110,Active,,,http://www.redfin.com/MA/Boston/423-Bunker-Hill-St-02129/unit-4/home/9054624,MLS PIN,72787062,N,Y,42.3830358,-71.0705511
MLS Listing,,Condo/Co-op,20 Tower St #1,Boston,MA,2130,549000,2,1,Jamaica Plain,1078,,1900,4,509,261,Active,,,http://www.redfin.com/MA/Boston/20-Tower-St-02130/unit-1/home/9299410,MLS PIN,72787060,N,Y,42.2996975,-71.112438
MLS Listing,,Condo/Co-op,266 Shawmut Ave #2,Boston,MA,2118,959000,2,2,South End,887,,1900,4,1081,283,Active,February-21-2021 11:30 AM,February-21-2021 01:00 PM,http://www.redfin.com/MA/Boston/266-Shawmut-Ave-02118/unit-2/home/9301393,MLS PIN,72787043,N,Y,42.3430649,-71.0687204
MLS Listing,,Condo/Co-op,1692 Washington St #2,Boston,MA,2118,1195000,3,2,South End,1330,1330,1910,4,898,219,Active,February-21-2021 11:30 AM,February-21-2021 01:00 PM,http://www.redfin.com/MA/Boston/1692-Washington-St-02118/unit-2/home/21718020,MLS PIN,72787041,N,Y,42.3369294,-71.075759
MLS Listing,,Parking,"6-8 Whittier Place, PS 219",Boston,MA,2114,49000,,,West End,,,,4,,218,Active,,,http://www.redfin.com/MA/Boston/6-Whittier-Pl-02114/home/9228195,MLS PIN,72787033,N,Y,42.3657336,-71.0669497
MLS Listing,,Condo/Co-op,45 Temple St #207,Boston,MA,2114,1450000,1,1.5,Beacon Hill,1201,,2019,4,1207,878,Active,,,http://www.redfin.com/MA/Boston/45-Temple-St-02114/unit-207/home/170245822,MLS PIN,72787027,N,Y,42.3600296,-71.0636082
MLS Listing,,Townhouse,491 Hyde Park Ave #491,Boston,MA,2131,426769,3,1.5,Roslindale,1826,1826,2001,4,234,264,Active,February-21-2021 11:00 AM,February-21-2021 01:00 PM,http://www.redfin.com/MA/Boston/491-Hyde-Park-Ave-02131/unit-491/home/174458817,MLS PIN,72787010,N,Y,42.2840264,-71.1192483
MLS Listing,,Condo/Co-op,503 E 1St St #3,Boston,MA,2127,1399000,3,2,South Boston,1664,1664,2010,4,841,517,Active,February-21-2021 11:30 AM,February-21-2021 01:00 PM,http://www.redfin.com/MA/Boston/503-E-1st-St-02127/unit-3/home/39945452,MLS PIN,72787008,N,Y,42.3378225,-71.0395868
MLS Listing,,Condo/Co-op,45 Temple St #612,Boston,MA,2114,6475000,3,2.5,Beacon Hill,3152,,2019,4,2054,4493,Active,,,http://www.redfin.com/MA/Boston/45-Temple-St-02114/unit-612/home/174458780,MLS PIN,72786999,N,Y,42.3600745,-71.0637956
MLS Listing,,Single Family Residential,267 Bolton St,Boston,MA,2127,1450000,3,2.5,South Boston,1764,1160,2006,4,822,,Active,February-21-2021 12:00 PM,February-21-2021 01:30 PM,http://www.redfin.com/MA/Boston/267-Bolton-St-02127/home/21719984,MLS PIN,72786992,N,Y,42.3374687,-71.0459464
MLS Listing,,Condo/Co-op,464 Commonwealth Ave #54,Boston,MA,2115,798888,1,1,Kenmore Square,725,,1910,4,1102,639,Active,,,http://www.redfin.com/MA/Boston/464-Commonwealth-Ave-02215/unit-54/home/9269366,MLS PIN,72786970,N,Y,42.3485171,-71.0931864
MLS Listing,,Condo/Co-op,1682 Washington St #9,Boston,MA,2118,1220000,2,2,South End,1559,1559,1875,4,783,606,Active,,,http://www.redfin.com/MA/Boston/1682-Washington-St-02118/unit-9/home/9299067,MLS PIN,72786962,N,Y,42.3371242,-71.0754957
MLS Listing,,Condo/Co-op,121 Portland St #602,Boston,MA,2114,899998,2,2,Midtown,917,,2017,4,981,627,Active,,,http://www.redfin.com/MA/Boston/121-Portland-St-02114/unit-602/home/77297543,MLS PIN,72786960,N,Y,42.3635856,-71.0604741
MLS Listing,,Condo/Co-op,2 Linwood St Unit Z,Boston,MA,2119,629000,2,2,Roxbury,1241,,2012,4,507,169,Active,February-21-2021 11:00 AM,February-21-2021 01:00 PM,http://www.redfin.com/MA/Boston/2-Linwood-St-02119/unit-Z/home/174458533,MLS PIN,72786955,N,Y,42.327796,-71.092683
MLS Listing,,Condo/Co-op,6 Coppersmith Way #3,Boston,MA,2128,869000,3,2.5,East Boston,1516,,2021,4,573,210,Active,February-21-2021 12:00 PM,February-21-2021 01:30 PM,http://www.redfin.com/MA/Boston/6-Coppersmith-Way-02128/unit-3/home/174458126,MLS PIN,72786893,N,Y,42.3718264,-71.0417632
MLS Listing,,Condo/Co-op,75 Sydney St,Boston,MA,2125,1225000,3,3.5,Dorchester,2427,,2021,4,505,225,Active,,,http://www.redfin.com/MA/Dorchester/75-Sydney-St-02125/home/9065955,MLS PIN,72786876,N,Y,42.314114,-71.0524928
MLS Listing,,Condo/Co-op,34 Tremont St #2,Chelsea,MA,2150,549000,2,1,Chelsea,1137,,1900,4,483,362,Active,February-21-2021 01:30 PM,February-21-2021 03:00 PM,http://www.redfin.com/MA/Chelsea/34-Tremont-St-02150/unit-2/home/137164219,MLS PIN,72786859,N,Y,42.387528,-71.041296
MLS Listing,,Single Family Residential,32 Mount Pleasant St,Somerville,MA,2145,675000,3,1.5,Somerville,1213,2404,1915,4,556,,Active,February-21-2021 12:00 PM,February-21-2021 02:00 PM,http://www.redfin.com/MA/Somerville/32-Mt-Pleasant-St-02145/home/8739563,MLS PIN,72786847,N,Y,42.3849249,-71.0786196
MLS Listing,,Condo/Co-op,156-168 Terrace St #403,Boston,MA,2120,599000,2,2,Mission Hill,1378,1378,1900,4,435,821,Active,,,http://www.redfin.com/MA/Boston/156-Terrace-St-02120/unit-403/home/172656343,MLS PIN,72786845,N,Y,42.3272225,-71.0985355
MLS Listing,,Condo/Co-op,42 8th St #5302,Boston,MA,2129,669999,2,2,Charlestown's Navy Yard,926,,1899,4,724,767,Active,February-21-2021 12:00 PM,February-21-2021 01:30 PM,http://www.redfin.com/MA/Boston/42-8th-St-02129/unit-5302/home/9328655,MLS PIN,72786833,N,Y,42.3749988,-71.0520878
MLS Listing,,Condo/Co-op,106 W 3rd St #2,Boston,MA,2127,799000,2,1.5,South Boston,1055,1055,1890,4,757,140,Active,February-21-2021 12:00 PM,February-21-2021 02:00 PM,http://www.redfin.com/MA/Boston/106-W-3rd-St-02127/unit-2/home/9185168,MLS PIN,72786829,N,Y,42.3411409,-71.0520664
MLS Listing,,Condo/Co-op,9 Rutland Sq #1,Boston,MA,2118,799000,1,1,South End,805,805,1910,4,993,168,Active,February-21-2021 12:00 PM,February-21-2021 02:00 PM,http://www.redfin.com/MA/Boston/9-Rutland-Sq-02118/unit-1/home/9284385,MLS PIN,72786820,N,Y,42.3414877,-71.0775176
MLS Listing,,Townhouse,2 Ellswood #2,Boston,MA,2132,849000,4,2.5,West Roxbury,1865,,2015,4,455,240,Active,February-21-2021 12:00 PM,February-21-2021 02:00 PM,http://www.redfin.com/MA/Boston/2-Ellswood-St-02132/unit-2/home/174457588,MLS PIN,72786790,N,Y,42.2845866,-71.1700073
MLS Listing,,Multi-Family (2-4 Unit),596-598 E 3Rd St,Boston,MA,2127,1349000,6,3,South Boston,2661,1306,1890,4,507,,Active,February-21-2021 11:30 AM,February-21-2021 01:00 PM,http://www.redfin.com/MA/Boston/596-E-3rd-St-02127/home/9198023,MLS PIN,72786782,N,Y,42.3366257,-71.0360848
MLS Listing,,Condo/Co-op,15 Savoy St Unit D308,Boston,MA,2118,1749000,3,2.5,South End,1879,1879,2002,4,931,1056,Active,February-21-2021 12:00 PM,February-21-2021 01:30 PM,http://www.redfin.com/MA/Boston/15-Savoy-St-02118/unit-D308/home/9320840,MLS PIN,72786768,N,Y,42.3415071,-71.067762
MLS Listing,,Condo/Co-op,347 Maverick #3,Boston,MA,2128,749000,3,2,East Boston's Jeffries Point,1050,,2021,4,713,275,Active,,,http://www.redfin.com/MA/Boston/347-Maverick-St-02128/unit-3/home/174457498,MLS PIN,72786765,N,Y,42.3663291,-71.0304388
MLS Listing,,Condo/Co-op,45 1st Ave #407,Boston,MA,2129,425000,0,1,Charlestown's Navy Yard,500,,2015,4,850,407,Active,,,http://www.redfin.com/MA/Boston/45-1st-Ave-02129/unit-407/home/101674077,MLS PIN,72786763,N,Y,42.3761429,-71.0529662
MLS Listing,,Condo/Co-op,347 Maverick #2,Boston,MA,2128,799000,2,2,East Boston's Jeffries Point,1150,,2021,4,695,275,Active,,,http://www.redfin.com/MA/Boston/347-Maverick-St-02128/unit-2/home/174457406,MLS PIN,72786745,N,Y,42.3663291,-71.0304388
MLS Listing,,Condo/Co-op,6 Whittier Pl Unit 10M,Boston,MA,2114,724000,2,2,West End,1272,,1964,4,569,1199,Active,,,http://www.redfin.com/MA/Boston/6-Whittier-Pl-02114/unit-10M/home/9228326,MLS PIN,72786529,N,Y,42.3657336,-71.0669497
MLS Listing,,Condo/Co-op,24 Rawson St #1,Boston,MA,2125,729000,2,2,Dorchester,1250,,2016,4,583,314,Active,,,http://www.redfin.com/MA/Boston/24-Rawson-St-02125/unit-1/home/103672553,MLS PIN,72786737,N,Y,42.3260097,-71.057939
MLS Listing,,Condo/Co-op,19 Salem St #1,Boston,MA,2129,625000,1,1,Charlestown,650,,1870,4,962,254,Active,,,http://www.redfin.com/MA/Boston/19-Salem-St-02129/unit-1/home/9046723,MLS PIN,72786736,N,Y,42.3775363,-71.0658529
MLS Listing,,Condo/Co-op,62 Florida St Unit 1 & 2,Boston,MA,2124,574900,4,2,Dorchester,1790,,1900,4,321,300,Active,,,http://www.redfin.com/MA/Boston/62-Florida-St-02124/unit-1-2/home/173324840,MLS PIN,72786711,N,Y,42.2899738,-71.0590517
MLS Listing,,Condo/Co-op,124 Melville Ave #3,Boston,MA,2124,515000,2,2,Dorchester's Lower Mills,1273,,1905,4,405,200,Active,March-6-2021 01:00 PM,March-6-2021 02:30 PM,http://www.redfin.com/MA/Boston/124-Melville-Ave-02124/unit-3/home/9330496,MLS PIN,72786704,N,Y,42.2961379,-71.0618108
MLS Listing,,Condo/Co-op,254-256 Medford St #3,Boston,MA,2129,409999,1,1,Charlestown,488,,1899,4,840,180,Active,February-21-2021 12:00 PM,February-21-2021 02:00 PM,http://www.redfin.com/MA/Boston/254-Medford-St-02129/unit-3/home/9318652,MLS PIN,72786688,N,Y,42.3805197,-71.0613199
MLS Listing,,Condo/Co-op,66 Saint James Pl #104,Boston,MA,2119,349888,2,1.5,Roxbury's Fort Hill,887,,1988,4,394,311,Active,February-21-2021 01:00 PM,February-21-2021 02:30 PM,http://www.redfin.com/MA/Boston/66-Saint-James-St-02119/unit-104/home/174457092,MLS PIN,72786682,N,Y,42.3268924,-71.0866282
MLS Listing,,Condo/Co-op,9 Kenney St #1,Boston,MA,2130,485000,2,1,Jamaica Plain,758,,1905,4,640,200,Active,,,http://www.redfin.com/MA/Boston/9-Kenney-St-02130/unit-1/home/9324794,MLS PIN,72786671,N,Y,42.3245757,-71.1091715
MLS Listing,,Condo/Co-op,10 Charlesgate E #102,Boston,MA,2215,1175000,2,2,Back Bay,1184,,1910,4,992,999,Active,February-21-2021 01:00 PM,February-21-2021 02:30 PM,http://www.redfin.com/MA/Boston/10-Charlesgate-E-02215/unit-102/home/9240026,MLS PIN,72786668,N,Y,42.3498885,-71.0912422
MLS Listing,,Condo/Co-op,24 Sidlaw Rd #3,Boston,MA,2135,349000,2,1,Brighton,523,,1925,4,667,347,Active,February-21-2021 11:30 AM,February-21-2021 01:00 PM,http://www.redfin.com/MA/Boston/24-Sidlaw-Rd-02135/unit-3/home/9007178,MLS PIN,72786663,N,Y,42.340286,-71.1527872
MLS Listing,,Condo/Co-op,420 W Broadway #506,Boston,MA,2127,1199900,2,2,South Boston,968,,2020,4,1240,461,Active,February-21-2021 11:00 AM,February-21-2021 03:00 PM,http://www.redfin.com/MA/Boston/420-W-Broadway-02127/unit-506/home/174456976,MLS PIN,72786662,N,Y,42.336863,-71.047101
MLS Listing,,Condo/Co-op,133 Sumner St Unit 7-302,Boston,MA,2128,549000,1,1,East Boston,681,,2021,4,806,261,Active,,,http://www.redfin.com/MA/Boston/133-Sumner-St-02128/unit-7-302/home/174456915,MLS PIN,72786653,N,Y,42.3695343,-71.0412506
MLS Listing,,Condo/Co-op,1313 Washington St #308,Boston,MA,2118,339309,1,1,South End,793,65611,2002,4,428,278,Active,,,http://www.redfin.com/MA/Boston/1313-Washington-St-02118/unit-308/home/9316555,MLS PIN,72786642,N,Y,42.3422378,-71.0685375
MLS Listing,,Condo/Co-op,15 Lafield St #01,Boston,MA,2122,350000,2,2,Dorchester,974,,1905,4,359,250,Active,February-21-2021 12:00 PM,February-21-2021 02:00 PM,http://www.redfin.com/MA/Boston/15-Lafield-St-02122/unit-1/home/12431192,MLS PIN,72786628,N,Y,42.2947138,-71.0597185
MLS Listing,,Condo/Co-op,33 Rosemont St #2,Boston,MA,2122,469900,2,1,Boston,1070,,1920,4,439,200,Active,February-21-2021 11:30 AM,February-21-2021 01:30 PM,http://www.redfin.com/MA/Boston/33-Rosemont-St-02122/unit-2/home/21621739,MLS PIN,72786617,N,Y,42.2926463,-71.0554918
MLS Listing,,Condo/Co-op,333 Savin Hill Ave #1,Boston,MA,2125,659000,2,2,Dorchester's Savin Hill,964,,1920,4,684,189,Active,February-21-2021 12:00 PM,February-21-2021 01:30 PM,http://www.redfin.com/MA/Dorchester/333-Savin-Hill-Ave-02125/unit-1/home/145093768,MLS PIN,72786605,N,Y,42.312708,-71.049284
MLS Listing,,Condo/Co-op,754 Tremont St #1,Boston,MA,2118,1435000,3,2,South End,1762,,1900,4,814,319,Active,February-21-2021 11:30 AM,February-21-2021 01:00 PM,http://www.redfin.com/MA/Boston/754-Tremont-St-02118/unit-1/home/9286887,MLS PIN,72786595,N,Y,42.339728,-71.0789076
MLS Listing,,Condo/Co-op,121 Portland #501,Boston,MA,2114,1149000,2,2,North End,1038,,2017,4,1107,815,Active,,,http://www.redfin.com/MA/Boston/121-Portland-St-02114/unit-501/home/112859324,MLS PIN,72786580,N,Y,42.3635856,-71.0604741
MLS Listing,,Condo/Co-op,990 Vfw Pkwy #302,Boston,MA,2132,303272,1,1,West Roxbury,922,922,2011,4,329,381,Active,,,http://www.redfin.com/MA/West-Roxbury/990-VFW-Pkwy-02132/unit-302/home/45407094,MLS PIN,72786576,N,Y,42.2840965,-71.1718194
MLS Listing,,Condo/Co-op,126 Tudor St Unit F,Boston,MA,2127,569000,2,1,Boston,872,,1989,5,653,339,Active,February-21-2021 12:00 PM,February-21-2021 02:00 PM,http://www.redfin.com/MA/Boston/126-Tudor-St-02127/unit-F/home/9184706,MLS PIN,72786553,N,Y,42.3359576,-71.0524534
MLS Listing,,Condo/Co-op,11 Agawam St #3,Boston,MA,2122,289000,1,1,Boston,520,,1920,5,556,122,Active,February-21-2021 12:00 PM,February-21-2021 02:00 PM,http://www.redfin.com/MA/Boston/11-Agawam-St-02122/unit-3/home/21718607,MLS PIN,72786546,N,Y,42.2952462,-71.0542915
MLS Listing,,Condo/Co-op,45 W Third St #204,Boston,MA,2127,845000,1,1,South Boston,774,,2018,5,1092,404,Active,February-21-2021 12:00 PM,February-21-2021 01:30 PM,http://www.redfin.com/MA/South-Boston/45-W-3rd-St-02127/unit-204/home/109315805,MLS PIN,72786532,N,Y,42.3421319,-71.0542886
MLS Listing,,Condo/Co-op,416 Marlborough #607,Boston,MA,2115,1995000,3,2,Back Bay,1976,,1989,5,1010,1883,Active,,,http://www.redfin.com/MA/Boston/416-Marlborough-St-02115/unit-607/home/9238993,MLS PIN,72786514,N,Y,42.3499152,-71.0886416
MLS Listing,,Condo/Co-op,8 Whittier Pl Unit 7F,Boston,MA,2114,564900,1,1,West End,908,908,1964,5,622,761,Active,February-21-2021 12:00 PM,February-21-2021 01:30 PM,http://www.redfin.com/MA/Boston/8-Whittier-Pl-02114/unit-7F/home/9228720,MLS PIN,72786503,N,Y,42.3654839,-71.06728
MLS Listing,,Condo/Co-op,68 Beacon St Unit 3W,Boston,MA,2108,4400000,3,2.5,Beacon Hill,2750,,1920,5,1600,3010,Active,,,http://www.redfin.com/MA/Boston/68-Beacon-St-02108/unit-3W/home/138172430,MLS PIN,72786499,N,Y,42.356364,-71.069772
MLS Listing,,Condo/Co-op,400-R K #18,Boston,MA,2127,150000,0,,South Boston,183,,1900,5,820,65,Active,,,http://www.redfin.com/MA/Boston/400-R-K-02127/unit-18/home/174454190,MLS PIN,72786496,N,Y,42.3364553,-71.0349193
MLS Listing,,Condo/Co-op,227 Summit Ave Unit E104,Brookline,MA,2446,1059000,2,2,Brookline,1209,,1984,5,876,821,Active,February-21-2021 12:00 PM,February-21-2021 02:00 PM,http://www.redfin.com/MA/Brookline/227-Summit-Ave-02446/unit-E104/home/11506112,MLS PIN,72786478,N,Y,42.3433776,-71.1355632
MLS Listing,,Condo/Co-op,88 Walnut St #4,Boston,MA,2122,389000,1,1,Dorchester's Neponset,1094,1094,1900,5,356,249,Active,,,http://www.redfin.com/MA/Boston/88-Walnut-St-02122/unit-4/home/11837911,MLS PIN,72786442,N,Y,42.2877172,-71.0402333
MLS Listing,,Single Family Residential,52 Deforest St,Boston,MA,2136,675000,4,2.5,Hyde Park,2600,7000,1925,5,260,,Active,,,http://www.redfin.com/MA/Hyde-Park/52-Deforest-St-02136/home/9125552,MLS PIN,72786441,N,Y,42.2671243,-71.1296031
MLS Listing,,Condo/Co-op,7 Albemarle #1,Boston,MA,2115,647000,1,1,Back Bay,681,,1920,5,950,281,Active,February-21-2021 12:00 PM,February-21-2021 01:30 PM,http://www.redfin.com/MA/Boston/7-Albemarle-St-02115/unit-1/home/9235003,MLS PIN,72786429,N,Y,42.3422771,-71.0831876
MLS Listing,,Condo/Co-op,86 Wyman St #1,Boston,MA,2130,925000,3,3,Jamaica Plain,1650,1650,1905,5,561,200,Active,February-21-2021 12:00 PM,February-21-2021 02:00 PM,http://www.redfin.com/MA/Boston/86-Wyman-St-02130/unit-1/home/21717045,MLS PIN,72786428,N,Y,42.3199217,-71.1045882
MLS Listing,,Condo/Co-op,52 Fisher #301,Boston,MA,2120,620000,2,1,Jamaica Plain,882,,2020,5,703,203,Active,February-21-2021 12:30 PM,February-21-2021 02:00 PM,http://www.redfin.com/MA/Boston/52-Fisher-Ave-02120/unit-301/home/173430281,MLS PIN,72786426,N,Y,42.3275326,-71.1021664
MLS Listing,,Parking,400-R K St,Boston,MA,2127,150000,,,South Boston,,183,,5,,65,Active,,,http://www.redfin.com/MA/Boston/400-Park-St-02124/home/174451708,MLS PIN,72786403,N,Y,42.2957413,-71.0711414
MLS Listing,,Condo/Co-op,250 Athens St #1,Boston,MA,2127,449000,1,1,South Boston,619,1180,1905,5,725,135,Active,February-21-2021 11:00 AM,February-21-2021 01:00 PM,http://www.redfin.com/MA/Boston/250-Athens-St-02127/unit-1/home/9318791,MLS PIN,72786384,N,Y,42.3388523,-71.0496074
MLS Listing,,Condo/Co-op,654 E 7th St #1,Boston,MA,2127,799900,2,2,South Boston,1266,,2018,5,632,190,Active,,,http://www.redfin.com/MA/Boston/654-E-7th-St-02127/unit-1/home/174451250,MLS PIN,72786375,N,Y,42.3325105,-71.0341068
MLS Listing,,Townhouse,77 Verndale St #1,Brookline,MA,2446,1965000,3,2.5,Coolidge Corner,2709,,1900,5,725,250,Active,February-21-2021 12:00 PM,February-21-2021 01:00 PM,http://www.redfin.com/MA/Brookline/77-Verndale-St-02446/unit-1/home/110054629,MLS PIN,72786369,N,Y,42.3480179,-71.1307059
MLS Listing,,Single Family Residential,160 W Concord St,Boston,MA,2118,4250000,4,3.5,South End,3668,1866,1899,5,1159,,Active,,,http://www.redfin.com/MA/Boston/160-W-Concord-St-02118/home/9289923,MLS PIN,72786323,N,Y,42.3400349,-71.0777607
MLS Listing,,Multi-Family (2-4 Unit),856 Saratoga St,Boston,MA,2128,914500,5,2,East Boston,2244,2500,1910,5,408,,Active,,,http://www.redfin.com/MA/Boston/856-Saratoga-St-02128/home/9114764,MLS PIN,72786301,N,Y,42.3853235,-71.0135376
MLS Listing,,Condo/Co-op,252 Webster St #1,Boston,MA,2128,649000,3,2,East Boston's Jeffries Point,1080,,1885,5,601,200,Active,,,http://www.redfin.com/MA/Boston/252-Webster-St-02128/unit-1/home/105708714,MLS PIN,72786260,N,Y,42.3648867,-71.0315941
MLS Listing,,Condo/Co-op,163 Thorndike St #2,Brookline,MA,2446,2274900,4,3.5,Brookline,2880,7180,1882,5,790,200,Active,February-21-2021 12:00 PM,February-21-2021 01:00 PM,http://www.redfin.com/MA/Brookline/163-Thorndike-St-02446/unit-2/home/174448929,MLS PIN,72786257,N,Y,42.3493689,-71.1259359
MLS Listing,,Condo/Co-op,10 Holborn St #3,Boston,MA,2121,499900,3,2,Dorchester,1407,,1900,5,355,200,Active,February-21-2021 12:00 PM,February-21-2021 02:00 PM,http://www.redfin.com/MA/Boston/10-Holborn-St-02121/unit-3/home/174448617,MLS PIN,72786247,N,Y,42.315283,-71.0823659
MLS Listing,,Condo/Co-op,1 Nassau St #1001,Boston,MA,2111,849000,2,2,Midtown,1036,1036,2004,5,819,977,Active,February-21-2021 12:00 PM,February-21-2021 01:30 PM,http://www.redfin.com/MA/Boston/1-Nassau-St-02111/unit-1001/home/9325431,MLS PIN,72786226,N,Y,42.348524,-71.0629362
MLS Listing,,Condo/Co-op,109 Williams St #5,Boston,MA,2130,439000,1,1,Jamaica Plain,665,,1930,5,660,200,Active,February-21-2021 12:00 PM,February-21-2021 02:00 PM,http://www.redfin.com/MA/Boston/109-Williams-St-02130/unit-5/home/9138012,MLS PIN,72786217,N,Y,42.3047972,-71.1059633
MLS Listing,,Single Family Residential,"126-130 Rosseter St, Dorchester",Boston,MA,2121,759000,5,2.5,Boston,2207,3920,1900,5,344,,Active,,,http://www.redfin.com/MA/Dorchester/126-Rosseter-St-02121/home/85680961,MLS PIN,72786209,N,Y,42.301672,-71.0726679
MLS Listing,,Condo/Co-op,51 Silver St #5,Boston,MA,2127,1449000,2,2,South Boston,1605,,2019,5,903,559,Active,February-21-2021 11:30 AM,February-21-2021 01:00 PM,http://www.redfin.com/MA/Boston/51-Silver-St-02127/unit-5/home/171551990,MLS PIN,72786205,N,Y,42.3410063,-71.0554702
MLS Listing,,Condo/Co-op,99 Sumner #511,Boston,MA,2128,1159700,2,2,East Boston,1126,,2021,5,1030,907,Active,,,http://www.redfin.com/MA/Boston/99-Sumner-St-02128/unit-511/home/170668765,MLS PIN,72786204,N,Y,42.3699466,-71.0422541
MLS Listing,,Condo/Co-op,26 Yarmouth St #1,Boston,MA,2116,1699000,2,2.5,South End,1779,1779,1900,5,955,386,Active,February-21-2021 12:00 PM,February-21-2021 01:30 PM,http://www.redfin.com/MA/Boston/26-Yarmouth-St-02116/unit-000001/home/21719260,MLS PIN,72786203,N,Y,42.3459239,-71.07709
MLS Listing,,Condo/Co-op,337 Chelsea #4,Boston,MA,2128,499999,1,1.5,Boston,820,,2021,5,610,225,Active,February-21-2021 11:00 AM,February-21-2021 01:00 PM,http://www.redfin.com/MA/Boston/337-Chelsea-St-02128/unit-4/home/174447158,MLS PIN,72786189,N,Y,42.3778767,-71.0292432
MLS Listing,,Condo/Co-op,357 Commercial St #502,Boston,MA,2109,780000,2,1.5,Boston,1133,1133,1987,6,688,578,Active,February-21-2021 02:30 PM,February-21-2021 04:00 PM,http://www.redfin.com/MA/Boston/357-Commercial-St-02109/unit-502/home/9230401,MLS PIN,72786167,N,Y,42.3661069,-71.0505699
MLS Listing,,Single Family Residential,7 Saint Charles St,Boston,MA,2116,3250000,4,3,South End,3100,1360,1880,6,1048,,Active,February-21-2021 11:00 AM,February-21-2021 01:00 PM,http://www.redfin.com/MA/Boston/7-St-Charles-St-02116/home/9243003,MLS PIN,72786166,N,Y,42.3472276,-71.0718138
MLS Listing,,Condo/Co-op,181 Essex St #304,Boston,MA,2111,665000,1,1,Leather District,830,,2006,6,801,449,Active,,,http://www.redfin.com/MA/Boston/181-Essex-St-02111/unit-304/home/174446939,MLS PIN,72786165,N,Y,42.3520821,-71.0574662
MLS Listing,,Condo/Co-op,111 Perkins #111,Boston,MA,2130,410000,1,1,Jamaica Plain,845,,1964,6,485,1096,Active,,,http://www.redfin.com/MA/Jamaica-Plain/111-Perkins-St-02130/unit-111/home/40221688,MLS PIN,72786129,N,Y,42.3222155,-71.1159742
MLS Listing,,Parking,700 Harrison Ave,Boston,MA,2118,75000,,,South End,,100,,6,,55,Active,,,http://www.redfin.com/MA/Boston/700-Harrison-Ave-02118/home/21655415,MLS PIN,72786101,N,Y,42.3384041,-71.070437
MLS Listing,,Condo/Co-op,57 Broadlawn Park Unit 4A,Boston,MA,2467,359000,1,1,Boston,758,,1964,6,474,433,Active,,,http://www.redfin.com/MA/Chestnut-Hill/57-Broadlawn-Park-02467/unit-4A/home/174446076,MLS PIN,72786083,N,Y,42.302904,-71.1648493
MLS Listing,,Townhouse,99 Claybourne St #99,Boston,MA,2124,599900,3,1.5,Dorchester,1103,1603,2000,6,544,230,Active,,,http://www.redfin.com/MA/Boston/99-Claybourne-St-02124/unit-99/home/113246389,MLS PIN,72786029,N,Y,42.2961679,-71.0714335
MLS Listing,,Condo/Co-op,15 Swift Ter #2,Boston,MA,2128,479000,2,1,Boston,732,,2017,6,654,150,Active,,,http://www.redfin.com/MA/Boston/15-Swift-Ter-02128/unit-2/home/171788218,MLS PIN,72786020,N,Y,42.3802901,-71.0222669
MLS Listing,,Condo/Co-op,1 Dalton St Unit 1-3304,Boston,MA,2115,3350000,2,2.5,Back Bay,1363,,2019,6,2458,1792,Active,,,http://www.redfin.com/MA/Boston/1-Dalton-St-02199/unit-1-3304/home/174445002,MLS PIN,72785898,N,Y,42.345,-71.084314
MLS Listing,,Single Family Residential,97 Forbes St,Boston,MA,2130,799000,2,2,Jamaica Plain,1293,1310,1910,6,618,,Active,,,http://www.redfin.com/MA/Jamaica-Plain/97-Forbes-St-02130/home/9140767,MLS PIN,72785888,N,Y,42.3197548,-71.1058732
MLS Listing,,Condo/Co-op,43 Mount Vernon St #4,Boston,MA,2108,3495000,3,2.5,Beacon Hill,2300,,1910,6,1520,1145,Active,February-21-2021 12:00 PM,February-21-2021 01:00 PM,http://www.redfin.com/MA/Boston/43-Mt-Vernon-St-02108/unit-4/home/9299180,MLS PIN,72785886,N,Y,42.3585128,-71.0652045
MLS Listing,,Condo/Co-op,100 Belvidere St Unit 8E,Boston,MA,2199,1600000,1,2,Back Bay,971,,2001,6,1648,1435,Active,,,http://www.redfin.com/MA/Boston/100-Belvidere-St-02199/unit-8E/home/9317210,MLS PIN,72785880,N,Y,42.3459699,-71.0822734
MLS Listing,,Condo/Co-op,20 W Fifth Unit 2J,Boston,MA,2127,825000,1,2,South Boston,1160,,2020,6,711,561,Active,,,http://www.redfin.com/MA/Boston/20-W-Fifth-St-02127/unit-2J/home/171952504,MLS PIN,72785838,N,Y,42.3401945,-71.0561375
MLS Listing,,Single Family Residential,5 Meyer St,Boston,MA,2131,749000,5,2,Woodbourne,2378,18658,1915,7,315,,Active,,,http://www.redfin.com/MA/Roslindale/5-Meyer-St-02131/home/9225837,MLS PIN,72785762,N,Y,42.2890287,-71.1152128
MLS Listing,,Multi-Family (2-4 Unit),26 Cunningham St,Boston,MA,2125,799000,7,2.5,Boston,2620,4724,1910,7,305,,Active,,,http://www.redfin.com/MA/Dorchester/26-Cunningham-St-02125/home/9071050,MLS PIN,72785740,N,Y,42.3141498,-71.0744529
MLS Listing,,Condo/Co-op,121 Portland St #303,Boston,MA,2114,949900,2,2,Beacon Hill,1120,,2017,9,848,744,Active,,,http://www.redfin.com/MA/Boston/121-Portland-St-02114/unit-303/home/102578457,MLS PIN,72785545,N,Y,42.3635856,-71.0604741
MLS Listing,,Condo/Co-op,1 Dalton St #3901,Boston,MA,2115,12999000,3,3.5,Boston,3209,,2019,9,4051,7079,Active,,,http://www.redfin.com/MA/Boston/1-Dalton-St-02199/unit-3901/home/174436393,MLS PIN,72785529,N,Y,42.345,-71.084314
MLS Listing,,Condo/Co-op,1576 Commonwealth Ave #3,Boston,MA,2135,279000,0,1,Brighton,333,333,1920,9,838,288,Active,,,http://www.redfin.com/MA/Boston/1576-Commonwealth-Ave-02135/unit-3/home/9016875,MLS PIN,72785521,N,Y,42.3441082,-71.1421412
MLS Listing,,Multi-Family (2-4 Unit),29 Commonwealth Ter,Boston,MA,2135,4388000,16,8,Brighton,6884,3600,1920,9,637,,Active,,,http://www.redfin.com/MA/Brighton/29-Commonwealth-Ter-02135/home/9013171,MLS PIN,72785506,N,Y,42.346966,-71.1401866
MLS Listing,,Condo/Co-op,21 Father Francis Gilday #112,Boston,MA,2118,1250000,2,2,South End,1247,1247,2006,9,1002,945,Active,,,http://www.redfin.com/MA/Boston/21-Father-Francis-Gilday-St-02118/unit-112/home/21719329,MLS PIN,72785505,N,Y,42.3371558,-71.0732041
MLS Listing,,Vacant Land,151 Tremont Street UL347,Boston,MA,2111,79000,,,Midtown,,9999,,9,,,Active,,,http://www.redfin.com/MA/Boston/151-Tremont-St-02111/home/9279685,MLS PIN,72785481,N,Y,42.3544996,-71.0633802
MLS Listing,,Condo/Co-op,26 Stillman St Unit 5-5,Boston,MA,2113,739500,1,1,Boston,679,,2002,9,1089,484,Active,February-27-2021 11:30 AM,February-27-2021 02:00 PM,http://www.redfin.com/MA/Boston/26-Stillman-St-02113/unit-5-5/home/9312299,MLS PIN,72785416,N,Y,42.3636899,-71.0569564
MLS Listing,,Condo/Co-op,220 Boylston St #1008,Boston,MA,2116,3700000,2,3,Back Bay,1807,,1985,9,2048,3506,Active,,,http://www.redfin.com/MA/Boston/220-Boylston-St-02116/unit-1008/home/11836954,MLS PIN,72785376,N,Y,42.3520492,-71.0683082
MLS Listing,,Townhouse,121 Beacon #5,Boston,MA,2116,1499000,2,2,Back Bay,1340,,1852,9,1119,516,Active,February-28-2021 11:30 AM,February-28-2021 01:30 PM,http://www.redfin.com/MA/Boston/121-Beacon-St-02116/unit-5/home/9253865,MLS PIN,72785367,N,Y,42.3548682,-71.073558
MLS Listing,,Townhouse,14 Lena Ter #2,Boston,MA,2126,679000,4,3,Mattapan,3100,,2021,9,219,350,Active,,,http://www.redfin.com/MA/Boston/14-Lena-Ter-02126/unit-2/home/174433491,MLS PIN,72785349,N,Y,42.2778996,-71.0853432
MLS Listing,,Condo/Co-op,36 A Unit 3B,Boston,MA,2127,819000,2,1,South Boston,1002,,1900,9,817,567,Active,February-21-2021 12:00 PM,February-21-2021 01:30 PM,http://www.redfin.com/MA/Boston/36-A-St-02127/unit-3B/home/18982700,MLS PIN,72785298,N,Y,42.34132,-71.05635
MLS Listing,,Condo/Co-op,1 Franklin St #3807,Boston,MA,2110,2300000,2,2.5,Boston,1423,,2016,9,1616,1646,Active,,,http://www.redfin.com/MA/Boston/1-Franklin-St-02110/unit-3807/home/108266998,MLS PIN,72785258,N,Y,42.3563166,-71.0595573
MLS Listing,,Condo/Co-op,49 Rogers St #7,Boston,MA,2127,799000,2,2,South Boston,1053,,2021,9,759,225,Active,,,http://www.redfin.com/MA/Boston/49-Rogers-St-02127/unit-7/home/174432715,MLS PIN,72785253,N,Y,42.3289312,-71.0553598
MLS Listing,,Condo/Co-op,132 Sutherland Rd Unit A,Boston,MA,2135,329000,1,1,Brighton,617,617,1947,9,533,495,Active,,,http://www.redfin.com/MA/Boston/132-Sutherland-Rd-02135/unit-A/home/9021898,MLS PIN,72785234,N,Y,42.3405116,-71.1478952
MLS Listing,,Condo/Co-op,541 Adams St #37,Boston,MA,2122,290000,2,1,Boston,686,686,1965,9,423,364,Active,February-21-2021 11:00 AM,February-21-2021 01:00 PM,http://www.redfin.com/MA/Boston/541-Adams-St-02122/unit-37/home/9084312,MLS PIN,72780833,N,Y,42.2908672,-71.0577246
MLS Listing,,Condo/Co-op,133 Seaport Blvd #617,Boston,MA,2210,1775000,2,2,Seaport District,1057,,2020,10,1679,1238,Active,,,http://www.redfin.com/MA/Boston/133-Seaport-Blvd-02210/unit-617/home/160701085,MLS PIN,72785177,N,Y,42.3506288,-71.0433311
MLS Listing,,Condo/Co-op,133 Seaport Blvd #1610,Boston,MA,2210,1375000,1,1.5,Seaport District,779,,2019,10,1765,980,Active,,,http://www.redfin.com/MA/Boston/133-Seaport-Blvd-02210/unit-1610/home/170126807,MLS PIN,72785173,N,Y,42.3504935,-71.0434498
MLS Listing,,Condo/Co-op,100 Shawmut Ave #1007,Boston,MA,2118,1571900,2,2,South End,1028,,2021,10,1529,1189,Active,February-21-2021 12:00 PM,February-21-2021 02:00 PM,http://www.redfin.com/MA/Boston/100-Shawmut-Ave-02118/unit-1007/home/174428740,MLS PIN,72785165,N,Y,42.3466841,-71.0656551
MLS Listing,,Townhouse,19 Oak St Unit A,Boston,MA,2129,899000,2,2.5,Charlestown,1486,,2009,10,605,192,Active,February-21-2021 12:00 PM,February-21-2021 01:30 PM,http://www.redfin.com/MA/Boston/19-Oak-St-02129/unit-A/home/173689924,MLS PIN,72785132,N,Y,42.3803798,-71.0687308
MLS Listing,,Condo/Co-op,280 Beacon #5,Boston,MA,2116,950000,1,1,Boston,964,,1930,10,985,738,Active,,,http://www.redfin.com/MA/Boston/280-Beacon-St-02116/unit-5/home/9248281,MLS PIN,72785025,N,Y,42.3533964,-71.0812001
MLS Listing,,Townhouse,7 Blanvon Rd #2,Boston,MA,2130,719000,3,2.5,Jamaica Plain,1600,1468,2005,10,449,250,Active,,,http://www.redfin.com/MA/Boston/7-Blanvon-Rd-02130/unit-2/home/12447750,MLS PIN,72784953,N,Y,42.2913178,-71.1186182
MLS Listing,,Condo/Co-op,90 Wareham St #312,Boston,MA,2118,699000,1,1,South End,773,773,2006,10,904,487,Active,,,http://www.redfin.com/MA/Boston/90-Wareham-St-02118/unit-312/home/39912540,MLS PIN,72784952,N,Y,42.3389559,-71.06636
MLS Listing,,Condo/Co-op,110 Stuart St Unit 21B,Boston,MA,2116,2250000,2,2.5,Back Bay,1794,1794,2009,10,1254,2587,Active,February-21-2021 01:00 PM,February-21-2021 02:30 PM,http://www.redfin.com/MA/Boston/110-Stuart-St-02116/unit-21B/home/25675247,MLS PIN,72784904,N,Y,42.3509428,-71.0655922
MLS Listing,,Condo/Co-op,25 Alpine St #15,Boston,MA,2136,294900,2,1,Hyde Park,860,860,1970,10,343,366,Active,,,http://www.redfin.com/MA/Hyde-Park/25-Alpine-St-02136/unit-15/home/11737165,MLS PIN,72784888,N,Y,42.2650372,-71.1017272
MLS Listing,,Condo/Co-op,133 Seaport Blvd #1807,Boston,MA,2210,1175000,1,1,Seaport District,683,,2019,10,1720,893,Active,,,http://www.redfin.com/MA/Boston/133-Seaport-Blvd-02210/unit-1807/home/174425860,MLS PIN,72784874,N,Y,42.3505253,-71.0436017
MLS Listing,,Condo/Co-op,133 Seaport Blvd #2102,Boston,MA,2210,3295000,2,2.5,Seaport District,1621,,2019,10,2033,2313,Active,,,http://www.redfin.com/MA/Boston/133-Seaport-Blvd-02210/unit-2102/home/174425817,MLS PIN,72784869,N,Y,42.3505253,-71.0436017
MLS Listing,,Condo/Co-op,135 Seaport Blvd #2001,Boston,MA,2210,2425000,2,2.5,Seaport District,1314,,2020,10,1846,1860,Active,,,http://www.redfin.com/MA/Boston/135-Seaport-Blvd-02210/unit-2001/home/173645221,MLS PIN,72784858,N,Y,42.3509604,-71.0439013
MLS Listing,,Condo/Co-op,133 Seaport Blvd #2208,Boston,MA,2210,4629350,3,3.5,Seaport District,1878,,2019,10,2465,3031,Active,,,http://www.redfin.com/MA/Boston/133-Seaport-Blvd-02210/unit-2208/home/148367500,MLS PIN,72784855,N,Y,42.3508925,-71.0435336
MLS Listing,,Condo/Co-op,39 Commercial Wharf #4,Boston,MA,2110,1495000,2,2,Waterfront,1330,1330,1882,10,1124,902,Active,,,http://www.redfin.com/MA/Boston/39-Commercial-Wharf-02110/unit-4/home/9230077,MLS PIN,72784850,N,Y,42.361872,-71.050586
MLS Listing,,Condo/Co-op,28 Concord St #1,Boston,MA,2129,749000,2,2,Charlestown,830,,1890,10,902,143,Active,,,http://www.redfin.com/MA/Boston/28-Concord-St-02129/unit-1/home/9049103,MLS PIN,72784825,N,Y,42.3779479,-71.0610982
MLS Listing,,Condo/Co-op,21 Beaver Pl,Boston,MA,2108,9150000,5,4.5,Beacon Hill,5000,,1900,10,1830,1200,Active,,,http://www.redfin.com/MA/Boston/21-Beaver-Pl-02108/home/9320933,MLS PIN,72784822,N,Y,42.3562173,-71.0721164
MLS Listing,,Condo/Co-op,160 London St #2,Boston,MA,2128,619000,2,2,East Boston,1182,,2021,10,524,275,Active,,,http://www.redfin.com/MA/Boston/160-London-St-02128/unit-2/home/174424889,MLS PIN,72784731,N,Y,42.3743144,-71.0381421
MLS Listing,,Condo/Co-op,42 8th St #5105,Boston,MA,2129,519000,1,1,Boston,666,666,1899,10,779,609,Active,,,http://www.redfin.com/MA/Boston/42-8th-St-02129/unit-5105/home/9323601,MLS PIN,72784727,N,Y,42.3749988,-71.0520878
MLS Listing,,Condo/Co-op,10 Dent Unit B,Boston,MA,2132,325000,1,1,West Roxbury,511,,1910,10,636,106,Active,,,http://www.redfin.com/MA/West-Roxbury/10-Dent-St-02132/unit-B/home/143075950,MLS PIN,72784709,N,Y,42.2812576,-71.1611207
MLS Listing,,Condo/Co-op,35-37 Haverford St #4,Boston,MA,2130,700000,2,2,Jamaica Plain,1094,,2020,11,640,200,Active,,,http://www.redfin.com/MA/Boston/35-Haverford-St-02130/unit-4/home/174424079,MLS PIN,72784651,N,Y,42.3130358,-71.1017864
MLS Listing,,Condo/Co-op,70 Bremen St #306,Boston,MA,2128,520000,1,1,East Boston,746,,2018,11,697,422,Active,February-21-2021 11:30 AM,February-21-2021 01:00 PM,http://www.redfin.com/MA/Boston/70-Bremen-St-02128/unit-306/home/144800958,MLS PIN,72784648,N,Y,42.3703609,-71.0374124
MLS Listing,,Condo/Co-op,231 Coolidge Ave #411,Watertown,MA,2472,459000,2,1,Watertown,838,,1962,11,548,547,Active,,,http://www.redfin.com/MA/Watertown/231-Coolidge-Ave-02472/unit-411/home/11702837,MLS PIN,72784640,N,Y,42.3660189,-71.1445289
MLS Listing,,Condo/Co-op,1 Franklin St #1607,Boston,MA,2110,1949000,2,2.5,Theatre District,1366,,2016,11,1427,1473,Active,,,http://www.redfin.com/MA/Boston/1-Franklin-St-02110/unit-1607/home/144718022,MLS PIN,72784593,N,Y,42.3563166,-71.0595573
MLS Listing,,Condo/Co-op,1132 Saratoga St #2,Boston,MA,2128,579900,3,1,East Boston,1250,,1910,11,464,275,Active,,,http://www.redfin.com/MA/Boston/1132-Saratoga-St-02128/unit-2/home/174422097,MLS PIN,72784572,N,Y,42.3847009,-71.0008148
MLS Listing,,Condo/Co-op,1132 Saratoga St #1,Boston,MA,2128,549900,3,1,East Boston,1100,,1910,11,500,275,Active,,,http://www.redfin.com/MA/Boston/1132-Saratoga-St-02128/unit-1/home/174422093,MLS PIN,72784571,N,Y,42.3847009,-71.0008148
MLS Listing,,Townhouse,128 Kenrick St #2,Boston,MA,2135,899000,4,3,Brighton's Chestnut Hill,1815,1815,2007,11,495,340,Active,,,http://www.redfin.com/MA/Boston/128-Kenrick-St-02135/unit-2/home/25714541,MLS PIN,72784558,N,Y,42.3463924,-71.1683692
MLS Listing,,Condo/Co-op,509 Centre St #4,Boston,MA,2130,799000,3,2.5,Jamaica Plain,1667,1667,1899,11,479,508,Active,February-21-2021 12:00 PM,February-21-2021 01:00 PM,http://www.redfin.com/MA/Boston/509-Centre-St-02130/unit-4/home/9321861,MLS PIN,72784545,N,Y,42.3180341,-71.1133213
MLS Listing,,Condo/Co-op,345 Belgrade Ave Unit R12,Boston,MA,2131,649000,2,1.5,Roslindale,1368,,2013,11,474,225,Active,,,http://www.redfin.com/MA/Boston/345-Belgrade-Ave-02131/unit-R12/home/85680344,MLS PIN,72784531,N,Y,42.286286,-71.1458508
MLS Listing,,Condo/Co-op,143-171 Hyde Park Ave Unit 157A,Boston,MA,2130,799900,3,2.5,Jamaica Plain,1648,,2018,11,485,495,Active,February-21-2021 11:30 AM,February-21-2021 01:00 PM,http://www.redfin.com/MA/Boston/143-Hyde-Park-Ave-02130/unit-157A/home/145163734,MLS PIN,72784502,N,Y,42.2983186,-71.1148084
MLS Listing,,Condo/Co-op,347 Maverick #9,Boston,MA,2128,1099000,3,2,East Boston's Jeffries Point,1400,,2021,11,785,300,Active,,,http://www.redfin.com/MA/Boston/347-Maverick-St-02128/unit-9/home/174421156,MLS PIN,72784453,N,Y,42.3663291,-71.0304388
MLS Listing,,Townhouse,2 Crossman #2,Boston,MA,2126,689000,4,3,Boston,2195,4830,2020,11,314,310,Active,,,http://www.redfin.com/MA/Boston/2-Crossman-St-02126/unit-2/home/173423515,MLS PIN,72784434,N,Y,42.2740728,-71.0917733
MLS Listing,,Condo/Co-op,2 Harvard Pl #4,Boston,MA,2129,489000,1,1,Charlestown,558,,1900,11,876,150,Active,,,http://www.redfin.com/MA/Boston/2-Harvard-Pl-02129/unit-4/home/9227378,MLS PIN,72784424,N,Y,42.3721428,-71.0634197
MLS Listing,,Condo/Co-op,356 Princeton St #3,Boston,MA,2128,499000,3,1,East Boston's Eagle Hill,908,,1900,11,550,256,Active,,,http://www.redfin.com/MA/Boston/356-Princeton-St-02128/unit-3/home/146949208,MLS PIN,72784420,N,Y,42.3809552,-71.027235
MLS Listing,,Condo/Co-op,103 Gainsborough St #103,Boston,MA,2115,885800,2,1.5,The Fenway,1116,,1900,11,794,493,Active,February-21-2021 12:30 PM,February-21-2021 02:15 PM,http://www.redfin.com/MA/Boston/103-Gainsborough-St-02115/unit-103/home/113221363,MLS PIN,72784402,N,Y,42.3426788,-71.0892599
MLS Listing,,Condo/Co-op,341 E St #2,Boston,MA,2127,1099000,2,2,South Boston,1354,,2017,11,812,215,Active,,,http://www.redfin.com/MA/South-Boston/341-E-St-02127/unit-2/home/143812829,MLS PIN,72784381,N,Y,42.3383156,-71.0484249
MLS Listing,,Condo/Co-op,136 High St #2,Boston,MA,2129,599000,2,1,Boston,783,,1899,11,765,237,Active,,,http://www.redfin.com/MA/Boston/136-High-St-02129/unit-2/home/9046826,MLS PIN,72784375,N,Y,42.3785632,-71.0667639
MLS Listing,,Condo/Co-op,110 Sudbury St Unit 36C,Boston,MA,2114,3150000,2,2.5,Waterfront,1738,,2021,11,1812,2373,Active,,,http://www.redfin.com/MA/Boston/110-Sudbury-St-02114/unit-36C/home/174420427,MLS PIN,72784344,N,Y,42.3622402,-71.0591802
MLS Listing,,Condo/Co-op,141 Pleasant St #2,Boston,MA,2125,620000,2,2,Dorchester's Savin Hill,945,,1919,11,656,160,Active,February-21-2021 01:00 PM,February-21-2021 02:30 PM,http://www.redfin.com/MA/Dorchester/141-Pleasant-St-02125/unit-000002/home/12431173,MLS PIN,72784331,N,Y,42.3108858,-71.0596892
MLS Listing,,Condo/Co-op,5 Whitby Ter #1,Boston,MA,2125,599000,2,1,Dorchester's Savin Hill,929,,1905,11,645,160,Active,February-21-2021 12:00 PM,February-21-2021 01:30 PM,http://www.redfin.com/MA/Dorchester/5-Whitby-Ter-02125/unit-1/home/160599322,MLS PIN,72784224,N,Y,42.314579,-71.060432
MLS Listing,,Condo/Co-op,113-115 Fulton St #1,Boston,MA,2109,1095000,2,1.5,Waterfront,1371,,1900,11,799,161,Active,,,http://www.redfin.com/MA/Boston/113-Fulton-St-02109/unit-1/home/9269985,MLS PIN,72784218,N,Y,42.3624363,-71.0528697
MLS Listing,,Condo/Co-op,180 Beacon St Unit 5E,Boston,MA,2116,1795000,2,2.5,Back Bay,1409,1409,1968,11,1274,2296,Active,,,http://www.redfin.com/MA/Boston/180-Beacon-St-02116/unit-5E/home/9251928,MLS PIN,72784217,N,Y,42.3545871,-71.0769367
MLS Listing,,Multi-Family (2-4 Unit),82-84 Empire St,Boston,MA,2134,1150000,6,3,Allston,2570,2855,1926,11,447,,Active,,,http://www.redfin.com/MA/Boston/82-Empire-St-02134/home/8989280,MLS PIN,72784213,N,Y,42.3586682,-71.1264968
MLS Listing,,Single Family Residential,129 W Newton St,Boston,MA,2118,4395000,4,3.5,South End,3476,1224,1875,11,1264,,Active,,,http://www.redfin.com/MA/Boston/129-W-Newton-St-02118/home/21718991,MLS PIN,72784210,N,Y,42.3420902,-71.0770201
MLS Listing,,Single Family Residential,59 Mount Vernon St,Boston,MA,2108,7350000,6,4.5,Beacon Hill,6860,3667,1837,11,1071,,Active,,,http://www.redfin.com/MA/Boston/59-Mt-Vernon-St-02108/home/9259259,MLS PIN,72784190,N,Y,42.358542,-71.066103
MLS Listing,,Condo/Co-op,420 W Broadway #509,Boston,MA,2127,879900,1,1,South Boston,799,,2020,11,1101,339,Active,February-21-2021 11:00 AM,February-21-2021 03:00 PM,http://www.redfin.com/MA/Boston/420-W-Broadway-02127/unit-509/home/174419058,MLS PIN,72784189,N,Y,42.336863,-71.047101
MLS Listing,,Condo/Co-op,177 W 6Th St #5,Boston,MA,2127,480000,1,1,South Boston,488,488,1920,11,984,126,Active,February-21-2021 12:00 PM,February-21-2021 01:30 PM,http://www.redfin.com/MA/Boston/177-W-Sixth-St-02127/unit-5/home/21719489,MLS PIN,72784186,N,Y,42.335864,-71.0518153
MLS Listing,,Townhouse,24 Winslow Rd #24,Brookline,MA,2446,1899000,5,4.5,Coolidge Corner,2600,3228,1900,11,730,,Active,February-21-2021 12:00 PM,February-21-2021 01:30 PM,http://www.redfin.com/MA/Brookline/24-Winslow-Rd-02446/unit-24/home/172728754,MLS PIN,72784159,N,Y,42.3508915,-71.1223813
MLS Listing,,Condo/Co-op,221 Mount Auburn St #605,Cambridge,MA,2138,2475000,4,2.5,Harvard Square,1918,,1960,11,1290,2842,Active,,,http://www.redfin.com/MA/Cambridge/221-Mount-Auburn-St-02138/unit-605/home/174418376,MLS PIN,72784152,N,Y,42.3749379,-71.1301369
MLS Listing,,Condo/Co-op,4281 Washington St Unit 4A,Boston,MA,2131,675000,2,2,Roslindale,1062,5750,2020,12,636,240,Active,February-21-2021 11:30 AM,February-21-2021 01:00 PM,http://www.redfin.com/MA/Roslindale/4281-Washington-St-02131/unit-4A/home/172042624,MLS PIN,72784136,N,Y,42.2850725,-71.1298454
MLS Listing,,Condo/Co-op,29 Ward St #201,Boston,MA,2127,637000,2,1,South Boston,917,,2021,12,695,316,Active,,,http://www.redfin.com/MA/Boston/29-Ward-St-02127/unit-201/home/174413663,MLS PIN,72784123,N,Y,42.3296221,-71.0546847
MLS Listing,,Condo/Co-op,528 E 3rd #1,Boston,MA,2127,495000,1,1,South Boston,635,9999,1890,12,780,170,Active,February-21-2021 12:00 PM,February-21-2021 01:00 PM,http://www.redfin.com/MA/Boston/528-E-3rd-St-02127/unit-1/home/9303224,MLS PIN,72784122,N,Y,42.3365759,-71.0385578
MLS Listing,,Townhouse,227 Perkins St Unit F203,Boston,MA,2130,749000,2,2,Jamaica Plain,1326,1292,1987,12,565,913,Active,,,http://www.redfin.com/MA/Jamaica-Plain/227-Perkins-St-02130/unit-F203/home/9139818,MLS PIN,72784102,N,Y,42.3217324,-71.1222456
MLS Listing,,Condo/Co-op,193 Chelsea St #3,Boston,MA,2128,399000,2,1,East Boston's Eagle Hill,543,,1890,12,735,200,Active,February-21-2021 12:00 PM,February-21-2021 01:00 PM,http://www.redfin.com/MA/Boston/193-Chelsea-St-02128/unit-3/home/174409440,MLS PIN,72784070,N,Y,42.3743569,-71.033413
MLS Listing,,Condo/Co-op,21 Beacon St Unit 9I,Boston,MA,2108,949000,2,2,Beacon Hill,861,861,1899,12,1102,972,Active,February-21-2021 12:00 PM,February-21-2021 01:30 PM,http://www.redfin.com/MA/Boston/21-Beacon-St-02108/unit-9I/home/9277006,MLS PIN,72784060,N,Y,42.3581971,-71.0623515
MLS Listing,,Condo/Co-op,2 Avery St Unit 20C,Boston,MA,2111,3495000,3,3.5,Midtown,2707,2707,2000,12,1291,3897,Active,,,http://www.redfin.com/MA/Boston/2-Avery-St-02111/unit-20C/home/11837558,MLS PIN,72784025,N,Y,42.3528703,-71.0629976
MLS Listing,,Condo/Co-op,990 VFW Pkwy #403,Boston,MA,2132,574900,2,2,West Roxbury,1326,,2011,12,434,675,Active,February-21-2021 12:00 PM,February-21-2021 01:30 PM,http://www.redfin.com/MA/West-Roxbury/990-VFW-Pkwy-02132/unit-403/home/28933870,MLS PIN,72783961,N,Y,42.2840965,-71.1718194
MLS Listing,,Condo/Co-op,1243 Adams St Unit PM207,Boston,MA,2124,449900,1,1,Dorchester's Lower Mills,802,802,1900,12,561,570,Active,,,http://www.redfin.com/MA/Boston/1243-Adams-St-02124/unit-PM207/home/174419517,MLS PIN,72783904,N,Y,42.2714334,-71.0688121
MLS Listing,,Condo/Co-op,7 E Springfield #4,Boston,MA,2118,1079000,2,2,South End,967,,2018,12,1116,398,Active,,,http://www.redfin.com/MA/Boston/7-E-Springfield-St-02118/unit-4/home/174400800,MLS PIN,72783901,N,Y,42.3367226,-71.0760637
MLS Listing,,Condo/Co-op,70 Bremen St #406,Boston,MA,2128,530000,1,1,East Boston's Jeffries Point,746,,2018,12,710,422,Active,February-21-2021 11:30 AM,February-21-2021 01:00 PM,http://www.redfin.com/MA/Boston/70-Bremen-St-02128/unit-406/home/145592303,MLS PIN,72783873,N,Y,42.3703609,-71.0374124
MLS Listing,,Single Family Residential,48 Appleton St,Boston,MA,2116,4395000,4,3.5,South End,3700,1033,1890,12,1188,,Active,,,http://www.redfin.com/MA/Boston/48-Appleton-St-02116/home/9262687,MLS PIN,72783870,N,Y,42.3457063,-71.0720503
MLS Listing,,Condo/Co-op,7-9 Ferndale St Unit B,Boston,MA,2124,389000,3,1,Dorchester,1211,1211,1900,12,321,200,Active,,,http://www.redfin.com/MA/Boston/7-Ferndale-St-02124/unit-B/home/174399748,MLS PIN,72783834,N,Y,42.2885433,-71.0771233
MLS Listing,,Condo/Co-op,400 Stuart St Unit 18E,Boston,MA,2116,2500000,2,2.5,Boston,1561,1561,2009,12,1602,1699,Active,,,http://www.redfin.com/MA/Boston/400-Stuart-St-02116/unit-18E/home/12446051,MLS PIN,72783818,N,Y,42.3488635,-71.0736183
MLS Listing,,Condo/Co-op,403 W 1St #302,Boston,MA,2127,1299000,2,2,South Boston,1608,1608,2014,12,808,442,Active,,,http://www.redfin.com/MA/Boston/403-W-First-St-02127/unit-302/home/50263042,MLS PIN,72783739,N,Y,42.3374446,-71.0438646
MLS Listing,,Condo/Co-op,77 Pond Ave #802,Brookline,MA,2445,999500,2,2,Brookline Village,1570,,1970,13,637,1412,Active,,,http://www.redfin.com/MA/Brookline/77-Pond-Ave-02445/unit-802/home/11487598,MLS PIN,72783657,N,Y,42.329967,-71.1150142
MLS Listing,,Single Family Residential,145 Saratoga St,Boston,MA,2128,1195000,3,2.5,East Boston,2070,1642,1880,13,577,,Active,,,http://www.redfin.com/MA/Boston/145-Saratoga-St-02128/home/9117576,MLS PIN,72783646,N,Y,42.3770269,-71.0347916
MLS Listing,,Multi-Family (2-4 Unit),51 Lexington St,Boston,MA,2128,749995,3,3,East Boston's Eagle Hill,2043,1083,1900,13,367,,Active,,,http://www.redfin.com/MA/Boston/51-Lexington-St-02128/home/9118945,MLS PIN,72783623,N,Y,42.3774064,-71.037846
MLS Listing,,Condo/Co-op,52 Fisher #302,Boston,MA,2120,790000,3,2,Jamaica Plain,1205,,2020,13,656,305,Active,February-21-2021 12:30 PM,February-21-2021 02:00 PM,http://www.redfin.com/MA/Boston/52-Fisher-Ave-02120/unit-302/home/173280720,MLS PIN,72783602,N,Y,42.3275326,-71.1021664
MLS Listing,,Condo/Co-op,23 Margaret St #1,Boston,MA,2113,739000,3,1,North End,787,,1905,13,939,187,Active,,,http://www.redfin.com/MA/Boston/23-Margaret-St-02113/unit-1/home/11838873,MLS PIN,72783567,N,Y,42.3659971,-71.0554603
MLS Listing,,Condo/Co-op,20 Radcliffe Rd #206,Boston,MA,2134,439000,1,1,Boston,683,,1945,13,643,315,Active,,,http://www.redfin.com/MA/Boston/20-Radcliffe-Rd-02134/unit-206/home/8985130,MLS PIN,72783549,N,Y,42.351094,-71.1349325
MLS Listing,,Condo/Co-op,124 Appleton St #124,Boston,MA,2116,975000,2,2,South End,1010,1010,1890,13,965,184,Active,February-21-2021 11:30 AM,February-21-2021 01:00 PM,http://www.redfin.com/MA/Boston/124-Appleton-St-02116/unit-124/home/174391934,MLS PIN,72783511,N,Y,42.3450508,-71.0745796
MLS Listing,,Condo/Co-op,535 Harrison Ave Unit A405,Boston,MA,2118,1150000,2,2,South End,1087,,2003,13,1058,631,Active,February-21-2021 02:00 PM,February-21-2021 03:00 PM,http://www.redfin.com/MA/Boston/535-Harrison-Ave-02118/unit-A405/home/11511359,MLS PIN,72783506,N,Y,42.3415071,-71.067762
MLS Listing,,Multi-Family (2-4 Unit),602-604 Cambridge St,Boston,MA,2134,2450000,13,6,Allston,4693,5997,1910,13,522,,Active,,,http://www.redfin.com/MA/Boston/602-Cambridge-St-02134/home/8999845,MLS PIN,72783462,N,Y,42.351622,-71.1420439
MLS Listing,,Condo/Co-op,25 Clark St #2,Boston,MA,2109,749000,2,2,North End,1102,,1910,13,680,400,Active,February-21-2021 01:00 PM,February-21-2021 03:00 PM,http://www.redfin.com/MA/Boston/25-Clark-St-02109/unit-2/home/18982620,MLS PIN,72783424,N,Y,42.3649544,-71.0525365
MLS Listing,,Condo/Co-op,43 Westland Ave #601,Boston,MA,2115,879000,1,1,The Fenway,845,,2013,13,1040,604,Active,February-21-2021 12:00 PM,February-21-2021 01:00 PM,http://www.redfin.com/MA/Boston/43-Westland-Ave-02115/unit-601/home/50281447,MLS PIN,72783416,N,Y,42.3440463,-71.087888
MLS Listing,,Condo/Co-op,110 Arlington St #4,Boston,MA,2116,3000000,3,3,Back Bay,2310,,1931,13,1299,1264,Active,,,http://www.redfin.com/MA/Boston/110-Arlington-St-02116/unit-4/home/166863607,MLS PIN,72783404,N,Y,42.3494893,-71.0696472
MLS Listing,,Condo/Co-op,110 Arlington St #1,Boston,MA,2116,1300000,2,2,Back Bay,1448,,1931,13,898,548,Active,,,http://www.redfin.com/MA/Boston/110-Arlington-St-02116/unit-1/home/172530901,MLS PIN,72783402,N,Y,42.3494893,-71.0696472
MLS Listing,,Condo/Co-op,90 M St #2,Boston,MA,2127,859000,2,2,South Boston,1383,1383,1920,13,621,225,Active,February-21-2021 12:00 PM,February-21-2021 01:00 PM,http://www.redfin.com/MA/Boston/90-M-St-02127/unit-2/home/21719509,MLS PIN,72783382,N,Y,42.3349647,-71.0331284
MLS Listing,,Condo/Co-op,180 Telford St #519,Boston,MA,2135,549000,1,1,Brighton,504,31507,2018,14,1089,450,Active,,,http://www.redfin.com/MA/Boston/180-Telford-St-02135/unit-519/home/169051918,MLS PIN,72783222,N,Y,42.3638148,-71.1376444
MLS Listing,,Condo/Co-op,180 TELFORD #410,Boston,MA,2135,599000,1,1,Boston,632,,2018,15,948,463,Active,,,http://www.redfin.com/MA/Boston/180-Telford-St-02135/unit-410/home/171787846,MLS PIN,72783132,N,Y,42.3638148,-71.1376444
MLS Listing,,Condo/Co-op,49 Rogers St #2,Boston,MA,2127,719000,2,2,South Boston,950,,2021,15,757,210,Active,,,http://www.redfin.com/MA/Boston/49-Rogers-St-02127/unit-2/home/174381830,MLS PIN,72783120,N,Y,42.3289312,-71.0553598
MLS Listing,,Condo/Co-op,111 Perkins St Unit 224-6,Boston,MA,2130,1080000,3,3,Jamaica Plain,2100,,1963,15,514,2999,Active,,,http://www.redfin.com/MA/Jamaica-Plain/111-Perkins-St-02130/unit-224-6/home/172662654,MLS PIN,72783116,N,Y,42.3219957,-71.1164429
MLS Listing,,Condo/Co-op,771 Harrison Ave #103,Boston,MA,2118,675000,1,1.5,South End,819,,2021,15,824,498,Active,,,http://www.redfin.com/MA/Boston/771-Harrison-Ave-02118/unit-103/home/174381603,MLS PIN,72783111,N,Y,42.3369329,-71.0729853
MLS Listing,,Condo/Co-op,771 Harrison Ave Unit 7G,Boston,MA,2118,695000,1,1.5,South End,912,,2021,15,762,546,Active,,,http://www.redfin.com/MA/Boston/771-Harrison-Ave-02118/unit-7G/home/174381602,MLS PIN,72783110,N,Y,42.3369329,-71.0729853
MLS Listing,,Condo/Co-op,111 Perkins St #226,Boston,MA,2130,739000,2,2,Jamaica Plain,1310,,1963,15,564,1869,Active,,,http://www.redfin.com/MA/Jamaica-Plain/111-Perkins-St-02130/unit-226/home/138346254,MLS PIN,72783108,N,Y,42.3222155,-71.1159742
MLS Listing,,Vacant Land,0 Weitz St,Boston,MA,2134,1837900,,,Allston,,4500,,15,,,Active,,,http://www.redfin.com/MA/ALLSTON/WEITZ-ST-02134/home/171532565,MLS PIN,72783087,N,Y,42.360833,-71.131027
MLS Listing,,Multi-Family (2-4 Unit),141 Franklin St,Boston,MA,2134,1837900,8,3,Allston,2598,2911,1900,15,707,,Active,,,http://www.redfin.com/MA/Allston/141-Franklin-St-02134/home/8990718,MLS PIN,72783086,N,Y,42.361006,-71.131409
MLS Listing,,Multi-Family (2-4 Unit),150 Bremen St,Boston,MA,2128,950000,5,3,Boston,2252,1600,1910,15,422,,Active,,,http://www.redfin.com/MA/Boston/150-Bremen-St-02128/home/9116489,MLS PIN,72783079,N,Y,42.3721864,-71.0352327
MLS Listing,,Condo/Co-op,228 Allandale Rd Unit 2D,Boston,MA,2467,1275000,2,2.5,Boston,2439,2439,1989,16,523,1631,Active,,,http://www.redfin.com/MA/Chestnut-Hill/228-Allandale-Rd-02467/unit-2D/home/9300110,MLS PIN,72782999,N,Y,42.3015826,-71.1392506
MLS Listing,,Multi-Family (2-4 Unit),3 Lark St,Boston,MA,2127,1400000,6,6,South Boston,4147,2100,1900,16,338,,Active,,,http://www.redfin.com/MA/Boston/3-Lark-St-02127/home/9190118,MLS PIN,72782992,N,Y,42.3338132,-71.0525201
MLS Listing,,Multi-Family (2-4 Unit),108 Allston St,Boston,MA,2134,1800000,8,5,Allston,3300,9000,1890,16,545,,Active,February-21-2021 01:00 PM,February-21-2021 03:00 PM,http://www.redfin.com/MA/Allston/108-Allston-St-02134/home/8998475,MLS PIN,72782974,N,Y,42.3497008,-71.1366704
MLS Listing,,Condo/Co-op,135 Commonwealth Ave Unit 1R,Boston,MA,2116,399000,0,1,Back Bay,450,,1878,16,887,139,Active,,,http://www.redfin.com/MA/Boston/135-Commonwealth-Ave-02116/unit-1R/home/174374032,MLS PIN,72782975,N,Y,42.3523789,-71.0780277
MLS Listing,,Multi-Family (2-4 Unit),155 Centre St,Boston,MA,2119,1999999,8,4.5,Boston,3096,2877,1900,16,646,,Active,,,http://www.redfin.com/MA/ROXBURY/155-CENTRE-ST-02119/home/9290783,MLS PIN,72782931,N,Y,42.325899,-71.096945
MLS Listing,,Multi-Family (2-4 Unit),49-49B Charles St,Boston,MA,2114,2499000,3,3,Beacon Hill,3200,862,1899,16,781,,Active,,,http://www.redfin.com/MA/Boston/49-49B-Charles-St-02114/home/173618773,MLS PIN,72782886,N,Y,42.3575263,-71.0699204
MLS Listing,,Multi-Family (5+ Unit),45 Hancock St,Boston,MA,2114,3999000,10,5,Beacon Hill,5000,1489,1900,16,800,,Active,,,http://www.redfin.com/MA/Boston/45-Hancock-St-02114/home/9276649,MLS PIN,72782883,N,Y,42.3599168,-71.064564
MLS Listing,,Condo/Co-op,73 Chelsea St #109,Boston,MA,2129,899000,2,2.5,Charlestown's Navy Yard,1101,,2000,16,817,715,Active,,,http://www.redfin.com/MA/Boston/73-Chelsea-St-02129/unit-109/home/9310616,MLS PIN,72782880,N,Y,42.3715967,-71.0364321
MLS Listing,,Condo/Co-op,12 Stoneholm St #328,Boston,MA,2115,449000,1,1,The Fenway,400,999,2006,16,1123,388,Active,,,http://www.redfin.com/MA/Boston/12-Stoneholm-St-02115/unit-328/home/12440020,MLS PIN,72782830,N,Y,42.3458257,-71.0886264
MLS Listing,,Condo/Co-op,580 E Broadway #1,Boston,MA,2127,899000,2,2.5,South Boston,1228,,2020,16,732,300,Active,,,http://www.redfin.com/MA/Boston/580-E-Broadway-02127/unit-1/home/173495267,MLS PIN,72782728,N,Y,42.3357122,-71.0408856
MLS Listing,,Townhouse,690 Dorchester Ave Unit B,Boston,MA,2127,649000,4,1.5,South Boston,1471,,1989,17,441,140,Active,,,http://www.redfin.com/MA/Boston/690-Dorchester-Ave-02127/unit-B/home/9187844,MLS PIN,72782697,N,Y,42.3266989,-71.0566946
MLS Listing,,Condo/Co-op,221 Paris St #2,Boston,MA,2128,440000,1,1,East Boston,500,,2020,17,880,250,Active,,,http://www.redfin.com/MA/Boston/221-Paris-St-02128/unit-2/home/172534516,MLS PIN,72782675,N,Y,42.3748431,-71.0345536
MLS Listing,,Condo/Co-op,528 E 7th St #1,Boston,MA,2127,629000,1,1.5,South Boston,1000,,1900,17,629,180,Active,,,http://www.redfin.com/MA/Boston/528-E-7th-St-02127/unit-1/home/12384476,MLS PIN,72782586,N,Y,42.3323457,-71.0393186
MLS Listing,,Condo/Co-op,295 Commonwealth Ave Unit 6B,Boston,MA,2115,925000,2,2,Back Bay,860,,1899,17,1076,455,Active,,,http://www.redfin.com/MA/Boston/295-Commonwealth-Ave-02115/unit-6B/home/17108120,MLS PIN,72782582,N,Y,42.3502871,-71.0857192
MLS Listing,,Condo/Co-op,520-526 Dorchester Ave Unit 3R,Boston,MA,2127,919000,2,2,South Boston,1394,,2020,17,659,234,Active,,,http://www.redfin.com/MA/Boston/520-Dorchester-Ave-02127/unit-3R/home/172693532,MLS PIN,72782570,N,Y,42.3314502,-71.0567625
MLS Listing,,Condo/Co-op,2 Avery St Unit 29 EH,Boston,MA,2111,12000000,7,7,Midtown,7216,,2001,17,1663,10994,Active,,,http://www.redfin.com/MA/Boston/2-Avery-St-02111/unit-29E-H/home/21776220,MLS PIN,72782566,N,Y,42.3528703,-71.0629976
MLS Listing,,Condo/Co-op,520-526 Dorchester Ave #3,Boston,MA,2127,919000,2,2,South Boston,1377,,2020,17,667,234,Active,,,http://www.redfin.com/MA/Boston/520-Dorchester-Ave-02127/unit-3/home/172693543,MLS PIN,72782560,N,Y,42.3314502,-71.0567625
MLS Listing,,Condo/Co-op,345 D St #7,Boston,MA,2127,839000,2,2,South Boston,934,934,2013,17,898,404,Active,,,http://www.redfin.com/MA/Boston/345-D-St-02127/unit-7/home/56170298,MLS PIN,72782548,N,Y,42.3404409,-71.0485561
MLS Listing,,Condo/Co-op,20 Rowes Wharf #310,Boston,MA,2110,3499000,2,2.5,Waterfront,2068,,1987,17,1692,4910,Active,,,http://www.redfin.com/MA/Boston/20-Rowes-Wharf-02110/unit-310/home/9229856,MLS PIN,72782526,N,Y,42.3566639,-71.0497268
MLS Listing,,Condo/Co-op,92 W Eighth #3,Boston,MA,2127,1379000,3,2.5,South Boston,1846,,2021,17,747,,Active,,,http://www.redfin.com/MA/Boston/92-W-8th-St-02127/unit-3/home/174365650,MLS PIN,72782444,N,Y,42.3358251,-71.0548491
MLS Listing,,Condo/Co-op,11 Walley #310,Boston,MA,2128,850000,3,2,East Boston,1193,,2020,17,712,535,Active,,,http://www.redfin.com/MA/Boston/11-Walley-St-02128/unit-310/home/174365582,MLS PIN,72782438,N,Y,42.3897025,-70.9986434
MLS Listing,,Condo/Co-op,11 Walley #107,Boston,MA,2128,625000,2,2,East Boston,1064,,2020,17,587,401,Active,,,http://www.redfin.com/MA/Boston/11-Walley-St-02128/unit-107/home/174365536,MLS PIN,72782436,N,Y,42.3897025,-70.9986434
MLS Listing,,Condo/Co-op,107 Bigelow St #3,Boston,MA,2135,513000,2,1,Brighton,1166,1166,1899,17,440,512,Active,,,http://www.redfin.com/MA/Boston/107-Bigelow-St-02135/unit-3/home/9034203,MLS PIN,72782435,N,Y,42.3554398,-71.1665847
MLS Listing,,Condo/Co-op,673 Tremont St #7,Boston,MA,2118,350000,0,1,South End,320,320,1865,17,1094,136,Active,,,http://www.redfin.com/MA/Boston/673-Tremont-St-02118/unit-7/home/9284727,MLS PIN,72782410,N,Y,42.3417582,-71.0763136
MLS Listing,,Condo/Co-op,500 Atlantic Ave Unit 19Q,Boston,MA,2210,1099000,1,1.5,Waterfront,860,,2006,17,1278,1215,Active,,,http://www.redfin.com/MA/Boston/500-Atlantic-Ave-02210/unit-19Q/home/12440119,MLS PIN,72782390,N,Y,42.3538536,-71.0520022
MLS Listing,,Condo/Co-op,1 Charles St S #401,Boston,MA,2116,1099000,1,1,Back Bay,725,,2004,17,1516,799,Active,,,http://www.redfin.com/MA/Boston/1-Charles-St-S-02116/unit-401/home/9325672,MLS PIN,72782378,N,Y,42.3513199,-71.0674769
MLS Listing,,Condo/Co-op,133 Lake Shore Rd #1,Boston,MA,2135,449000,2,1,Brighton,823,,1963,17,546,458,Active,,,http://www.redfin.com/MA/Boston/133-Lake-Shore-Rd-02135/unit-1/home/9043307,MLS PIN,72782287,N,Y,42.3442692,-71.1671795
MLS Listing,,Condo/Co-op,84 Berkeley St #1,Boston,MA,2116,1395000,2,2.5,South End,1850,1850,1875,17,754,523,Active,February-21-2021 01:00 PM,February-21-2021 02:30 PM,http://www.redfin.com/MA/Boston/84-Berkeley-St-02116/unit-1/home/9242898,MLS PIN,72782260,N,Y,42.3472169,-71.071242
MLS Listing,,Condo/Co-op,1400 CENTRE St #303,Boston,MA,2131,619000,2,2,Roslindale,989,,2021,17,626,285,Active,,,http://www.redfin.com/MA/Roslindale/1400-Centre-St-02131/unit-303/home/174152343,MLS PIN,72782253,N,Y,42.294244,-71.135773
MLS Listing,,Multi-Family (2-4 Unit),65 Harvest St,Boston,MA,2125,1659000,7,3.5,Dorchester,3111,5455,1900,17,533,,Active,February-21-2021 12:00 PM,February-21-2021 02:00 PM,http://www.redfin.com/MA/Dorchester/65-Harvest-St-02125/home/9099735,MLS PIN,72782192,N,Y,42.3236028,-71.0595499
MLS Listing,,Condo/Co-op,520 Talbot Ave #8,Boston,MA,2124,299999,2,1,Dorchester,750,750,1966,18,400,400,Active,,,http://www.redfin.com/MA/Boston/520-Talbot-Ave-02124/unit-8/home/18995575,MLS PIN,72782190,N,Y,42.2877801,-71.0648851
MLS Listing,,Multi-Family (2-4 Unit),29 Beacon St,Boston,MA,2136,1199000,8,4,Hyde Park's Fairmount,3789,10637,1910,18,316,,Active,,,http://www.redfin.com/MA/Hyde-Park/29-Beacon-St-02136/home/9128486,MLS PIN,72782122,N,Y,42.2531273,-71.116429
MLS Listing,,Condo/Co-op,119-141 Hyde Park Ave Unit 121C,Boston,MA,2130,489000,1,1,Jamaica Plain,768,,2021,18,637,250,Active,,,http://www.redfin.com/MA/Boston/119-Hyde-Park-Ave-02130/unit-121C/home/173180900,MLS PIN,72782070,N,Y,42.2995429,-71.1140169
MLS Listing,,Single Family Residential,91 bennington,Boston,MA,2128,549900,2,1.5,East Boston,1136,1250,1900,18,484,,Active,February-21-2021 11:00 AM,February-21-2021 01:00 PM,http://www.redfin.com/MA/Boston/91-Bennington-St-02128/home/9118119,MLS PIN,72782068,N,Y,42.3761053,-71.035314
MLS Listing,,Condo/Co-op,58 Myrtle St #5,Boston,MA,2114,1070000,2,1,Beacon Hill,1040,1040,1899,18,1029,418,Active,,,http://www.redfin.com/MA/Boston/58-Myrtle-St-02114/unit-5/home/9236527,MLS PIN,72782022,N,Y,42.3591782,-71.0663691
MLS Listing,,Condo/Co-op,29 Ward St #203,Boston,MA,2127,721000,2,2,South Boston,1025,,2021,18,703,350,Active,,,http://www.redfin.com/MA/Boston/29-Ward-St-02127/unit-203/home/174359149,MLS PIN,72781948,N,Y,42.3296221,-71.0546847
MLS Listing,,Condo/Co-op,456 Beacon St #4,Boston,MA,2115,750000,1,1,Back Bay,678,678,1910,18,1106,447,Active,,,http://www.redfin.com/MA/Boston/456-Beacon-St-02115/unit-4/home/9239200,MLS PIN,72781886,N,Y,42.3516431,-71.0877113
MLS Listing,,Condo/Co-op,3 Avery St #802,Boston,MA,2111,519000,1,1,Midtown,801,801,2004,18,648,1535,Active,,,http://www.redfin.com/MA/Boston/3-Avery-St-02111/unit-802/home/11838669,MLS PIN,72781834,N,Y,42.353596,-71.0628695
MLS Listing,,Vacant Land,0 Hinckley St,Boston,MA,2125,179000,,,Dorchester's Savin Hill,,2000,,18,,,Active,,,http://www.redfin.com/MA/Dorchester/187-E-Cottage-St-02125/home/174358116,MLS PIN,72781824,N,Y,42.3198995,-71.0612445
MLS Listing,,Condo/Co-op,110 Sudbury St Unit 36E,Boston,MA,2114,2950000,2,2,Waterfront,1848,,2021,18,1596,2273,Active,,,http://www.redfin.com/MA/Boston/110-Sudbury-St-02114/unit-36E/home/174357330,MLS PIN,72781743,N,Y,42.3622402,-71.0591802
MLS Listing,,Condo/Co-op,135 Seaport Blvd #806,Boston,MA,2210,1479000,2,2,Seaport District,1011,,2019,18,1463,1186,Active,,,http://www.redfin.com/MA/Boston/135-Seaport-Blvd-02210/unit-806/home/174357288,MLS PIN,72781731,N,Y,42.3499499,-71.0435457
MLS Listing,,Condo/Co-op,909 South St #1,Boston,MA,2131,579000,3,1,Roslindale,1100,,1900,18,526,260,Active,February-21-2021 01:30 PM,February-21-2021 03:30 PM,http://www.redfin.com/MA/Boston/909-South-St-02131/unit-1/home/174357270,MLS PIN,72781726,N,Y,42.2885168,-71.1355924
MLS Listing,,Condo/Co-op,20 Rowes Wharf #606,Boston,MA,2110,2399000,2,2,Waterfront,1427,,1987,19,1681,2970,Active,,,http://www.redfin.com/MA/Boston/20-Rowes-Wharf-02110/unit-606/home/9229922,MLS PIN,72781578,N,Y,42.3566639,-71.0497268
MLS Listing,,Condo/Co-op,88 Kingston St Unit SL-32,Boston,MA,2111,30000,0,,Midtown,50,,2005,19,600,,Active,,,http://www.redfin.com/MA/Boston/88-Kingston-St-02111/unit-SL-32/home/174354526,MLS PIN,72781568,N,Y,42.3529666,-71.0589696
MLS Listing,,Single Family Residential,3 Pelham Ter,Boston,MA,2118,2699000,3,3,South End,2491,1294,1890,19,1084,,Active,February-21-2021 11:30 AM,February-21-2021 01:00 PM,http://www.redfin.com/MA/Boston/3-Pelham-Ter-02118/home/9282306,MLS PIN,72781567,N,Y,42.3414607,-71.0707806
MLS Listing,,Condo/Co-op,16 Bryon Rd #2,Boston,MA,2132,289000,1,1,West Roxbury's Chestnut Hill,625,625,1965,19,462,299,Active,,,http://www.redfin.com/MA/WEST-ROXBURY/16-BRYON-RD-02132/unit-2/home/9309024,MLS PIN,72781443,N,Y,42.301323,-71.16577
MLS Listing,,Condo/Co-op,150 W Broadway #203,Boston,MA,2127,929999,2,2,South Boston,1201,,2018,19,774,366,Active,,,http://www.redfin.com/MA/Boston/150-W-Broadway-02127/unit-203/home/168863501,MLS PIN,72781363,N,Y,42.3407806,-71.053375
MLS Listing,,Condo/Co-op,170 Tremont St #702,Boston,MA,2111,1075000,2,1.5,Midtown,812,812,1989,19,1324,781,Active,,,http://www.redfin.com/MA/Boston/170-Tremont-St-02111/unit-702/home/9232252,MLS PIN,72781327,N,Y,42.3536576,-71.063854
MLS Listing,,Condo/Co-op,128 Beacon Unit A,Boston,MA,2116,6450000,3,3.5,Back Bay,4112,,1899,19,1569,4529,Active,,,http://www.redfin.com/MA/Boston/128-Beacon-St-02116/unit-A/home/11838668,MLS PIN,72781320,N,Y,42.35518,-71.074644
MLS Listing,,Condo/Co-op,1672R Washington St #301,Boston,MA,2118,610000,1,1,South End,518,518,2013,19,1178,351,Active,,,http://www.redfin.com/MA/Boston/1672-Washington-St-02118/unit-301/home/174342075,MLS PIN,72781288,N,Y,42.3374094,-71.075375
MLS Listing,,Condo/Co-op,27 Wareham St #101,Boston,MA,2118,1149000,2,2,South End,1215,1215,2000,19,946,606,Active,,,http://www.redfin.com/MA/Boston/27-Wareham-St-02118/unit-101/home/11510993,MLS PIN,72781283,N,Y,42.339521,-71.0682912
MLS Listing,,Condo/Co-op,32 Traveler St #501,Boston,MA,2118,1125000,2,1,South End,920,,2015,19,1223,900,Active,,,http://www.redfin.com/MA/Boston/32-Traveler-St-02118/unit-501/home/65672021,MLS PIN,72781274,N,Y,42.3446088,-71.0638983
MLS Listing,,Condo/Co-op,19 Bay State Rd #1,Boston,MA,2215,1099000,2,2,Back Bay,1331,1331,1899,19,826,579,Active,,,http://www.redfin.com/MA/Boston/19-Bay-State-Rd-02215/unit-1/home/21718677,MLS PIN,72781267,N,Y,42.3501908,-71.0937126
MLS Listing,,Single Family Residential,122 Saratoga St,Boston,MA,2128,849900,6,3,East Boston,1608,2250,1880,20,529,,Active,,,http://www.redfin.com/MA/Boston/122-Saratoga-St-02128/home/9119779,MLS PIN,72781191,N,Y,42.377077,-71.035673
MLS Listing,,Condo/Co-op,1 Dalton Unit 28-04,Boston,MA,2115,2975000,2,2.5,Back Bay,1383,,2020,20,2151,1385,Active,,,http://www.redfin.com/MA/Boston/1-Dalton-St-02115/unit-2804/home/173756614,MLS PIN,72781178,N,Y,42.3458168,-71.0841316
MLS Listing,,Townhouse,137 Pembroke St Unit U3,Boston,MA,2118,2495000,4,3.5,South End,2297,2297,1900,20,1086,450,Active,,,http://www.redfin.com/MA/Boston/137-Pembroke-St-02118/unit-U3/home/174337468,MLS PIN,72781165,N,Y,42.3433001,-71.0772036
MLS Listing,,Condo/Co-op,610 Rutherford Ave #403,Boston,MA,2129,779000,3,2,Charlestown's Sullivan Square,1190,,2020,20,655,359,Active,,,http://www.redfin.com/MA/Boston/610-Rutherford-Ave-02129/unit-403/home/172051521,MLS PIN,72781138,N,Y,42.3836428,-71.0738301
MLS Listing,,Multi-Family (2-4 Unit),208 Harold St,Boston,MA,2121,1225000,8,3.5,Roxbury,4350,1259,1900,20,282,,Active,,,http://www.redfin.com/MA/Boston/208-Harold-St-02121/home/140094770,MLS PIN,72781055,N,Y,42.3137821,-71.0918785
MLS Listing,,Condo/Co-op,771 Harrison Ave #105,Boston,MA,2118,1495000,3,2.5,South End,1793,,2021,20,834,1091,Active,,,http://www.redfin.com/MA/Boston/771-Harrison-Ave-02118/unit-105/home/173434810,MLS PIN,72781012,N,Y,42.3369329,-71.0729853
MLS Listing,,Condo/Co-op,151 Tremont St Unit 14F/G,Boston,MA,2111,2175000,2,3,Midtown,1640,1640,1968,20,1326,1322,Active,,,http://www.redfin.com/MA/Boston/151-Tremont-St-02111/unit-14F-G/home/174114305,MLS PIN,72780932,N,Y,42.3544996,-71.0633802
MLS Listing,,Single Family Residential,19 Alaska St #19,Boston,MA,2119,999000,6,6,Roxbury,4100,3285,1900,20,244,,Active,,,http://www.redfin.com/MA/Boston/19-Alaska-St-02119/unit-19/home/174332206,MLS PIN,72780864,N,Y,42.3209609,-71.079025
MLS Listing,,Condo/Co-op,354 Market St #14,Boston,MA,2135,459000,2,1,Brighton,660,,1967,20,695,335,Active,,,http://www.redfin.com/MA/Boston/354-Market-St-02135/unit-14/home/9025955,MLS PIN,72780854,N,Y,42.3508075,-71.15203
MLS Listing,,Condo/Co-op,256 Bunker Hill St #2,Boston,MA,2129,426500,1,1,Charlestown,406,,1875,20,1050,124,Active,,,http://www.redfin.com/MA/Boston/256-Bunker-Hill-St-02129/unit-2/home/9328324,MLS PIN,72780849,N,Y,42.3797473,-71.064573
MLS Listing,,Condo/Co-op,180 Telford St #521,Boston,MA,2135,719000,1,1,Allston,782,,2018,21,919,545,Active,,,http://www.redfin.com/MA/Boston/180-Telford-St-02135/unit-521/home/171787869,MLS PIN,72780828,N,Y,42.3638148,-71.1376444
MLS Listing,,Vacant Land,16 Church St,Boston,MA,2122,399900,,,Dorchester,,2695,,21,,,Active,,,http://www.redfin.com/MA/Dorchester/16-Church-St-02122/home/172717848,MLS PIN,72780773,N,Y,42.3086911,-71.0632018
MLS Listing,,Condo/Co-op,1 Avery St Unit 17B,Boston,MA,2111,2245000,3,3.5,Midtown,1862,,2000,21,1206,2711,Active,,,http://www.redfin.com/MA/Boston/1-Avery-St-02111/unit-17B/home/174331420,MLS PIN,72780755,N,Y,42.3533168,-71.0628507
